city,lat,lng,country,iso2,admin,capital,population,population_proper
Mexico City,19.434167,-99.138611,Mexico,MX,Ciudad de México,primary,19028000,10811002
Guadalajara,20.666823,-103.391824,Mexico,MX,Jalisco,admin,4198000,1640589
Monterrey,25.675065,-100.318465,Mexico,MX,Nuevo León,admin,3712000,1122874
Puebla,19.037926,-98.203457,Mexico,MX,Puebla,admin,2195000,1392099
Tijuana,32.502698,-117.003714,Mexico,MX,Baja California,,1553000,1376457
Toluca,19.287311,-99.644979,Mexico,MX,México,admin,1531000,505881
León de los Aldama,21.129079,-101.673741,Mexico,MX,Guanajuato,minor,1488000,1114626
Ciudad Juárez,31.733333,-106.483333,Mexico,MX,México,,1343000,1343000
Torreon,25.543891,-103.418976,Mexico,MX,Coahuila de Zaragoza,,1144000,524066
Ciudad Nezahualcóyotl,19.400608,-99.014827,Mexico,MX,México,,1109363,750000
San Luis Potosí,22.149825,-100.979161,Mexico,MX,San Luis Potosí,admin,992000,677704
Mérida,20.975368,-89.616959,Mexico,MX,Yucatán,admin,965000,717175
Querétaro,20.600014,-100.399715,Mexico,MX,Querétaro,admin,961000,611785
Mexicali,32.650022,-115.461069,Mexico,MX,Baja California,admin,885000,587277
Aguascalientes,21.88234,-102.282586,Mexico,MX,Aguascalientes,admin,869000,658179
Tampico,22.27817,-97.86772,Mexico,MX,Tamaulipas,,859419,297284
Cuernavaca,18.933725,-99.228488,Mexico,MX,Morelos,admin,834001,349102
Culiacán,24.790325,-107.387816,Mexico,MX,Sinaloa,admin,809000,582469
Chihuahua,28.633333,-106.083333,Mexico,MX,Chihuahua,admin,793000,708267
Saltillo,25.423213,-101.005299,Mexico,MX,Coahuila de Zaragoza,admin,754000,604573
Acapulco de Juárez,16.870236,-99.868452,Mexico,MX,Guerrero,minor,715584,652136
Morelia,19.70179,-101.183962,Mexico,MX,Michoacán de Ocampo,admin,644306,592797
Hermosillo,29.102602,-110.977324,Mexico,MX,Sonora,admin,595811,512935
Veracruz,19.180954,-96.142901,Mexico,MX,Veracruz,,578963,568313
Cancún,21.172361,-86.829546,Mexico,MX,Quintana Roo,,542043,436862
Matamoros,25.869581,-97.501946,Mexico,MX,Tamaulipas,,538785,364004
Oaxaca,17.065418,-96.723645,Mexico,MX,Oaxaca,admin,530728,262566
Tlaxcala,19.319055,-98.19982,Mexico,MX,Tlaxcala,admin,503878,89795
Mazatán,29.005032,-110.137853,Mexico,MX,Sonora,,500000,438434
Reynosa,26.080613,-98.28835,Mexico,MX,Tamaulipas,minor,498654,419340
Durango,24.019419,-104.66069,Mexico,MX,Durango,admin,457140,455597
Xalapa,19.54386,-96.92155,Mexico,MX,Veracruz,admin,452186,425148
Villahermosa,17.986893,-92.930277,Mexico,MX,Tabasco,admin,428564,362401
Gomez Palacio,25.569849,-103.495882,Mexico,MX,Durango,,399328,228577
Celaya,20.52353,-100.8157,Mexico,MX,Guanajuato,,383697,305901
Mazatlán,23.2329,-106.4062,Mexico,MX,Sinaloa,minor,368204,354717
Orizaba,18.851947,-97.099574,Mexico,MX,Veracruz,minor,355333,121348
Nuevo Laredo,27.484635,-99.522106,Mexico,MX,Tamaulipas,,349550,160755
Irapuato,20.676754,-101.356281,Mexico,MX,Guanajuato,minor,339554,339554
Pachuca,20.117362,-98.742915,Mexico,MX,Hidalgo,admin,319581,302141
Tepic,21.509505,-104.895691,Mexico,MX,Nayarit,admin,318781,280592
Ciudad Obregón,27.486421,-109.940826,Mexico,MX,Sonora,,288002,258162
Coatzacoalcos,18.133458,-94.442417,Mexico,MX,Veracruz,,287285,230717
Ciudad Victoria,23.741744,-99.145993,Mexico,MX,Tamaulipas,admin,274900,269923
Uruapan,19.411161,-102.05644,Mexico,MX,Michoacán de Ocampo,minor,264531,237308
Ensenada,31.871492,-116.600706,Mexico,MX,Baja California,minor,256565,220937
Poza Rica de Hidalgo,20.529054,-97.449662,Mexico,MX,Veracruz,,254481,174526
Zumpango,19.796685,-98.985422,Mexico,MX,Morelos,,250000,127988
Los Mochis,25.793024,-108.998075,Mexico,MX,Sinaloa,minor,249047,214601
Tehuacán,18.461476,-97.392821,Mexico,MX,Puebla,,241429,237312
Monclova,26.906871,-101.420565,Mexico,MX,Coahuila de Zaragoza,,236244,195764
Zacatecas,22.769005,-102.571563,Mexico,MX,Zacatecas,admin,234481,118562
Colima,19.249972,-103.727137,Mexico,MX,Colima,admin,223287,127235
Tapachula,14.903853,-92.257493,Mexico,MX,Chiapas,minor,221521,197961
Córdoba,18.885845,-96.931253,Mexico,MX,Veracruz,,220563,134403
Zamora,19.985501,-102.283875,Mexico,MX,Michoacán de Ocampo,,214947,124916
Campeche,19.843857,-90.525535,Mexico,MX,Campeche,admin,205212,202885
Minatitlan,17.999253,-94.554412,Mexico,MX,Veracruz,,201902,150895
Salamanca,20.57196,-101.191544,Mexico,MX,Guanajuato,minor,197524,138614
Ciudad Madero,22.272282,-97.83623,Mexico,MX,Tamaulipas,,192736,138087
La Paz,24.144373,-110.300501,Mexico,MX,Baja California Sur,admin,189767,171485
Puerto Vallarta,20.611251,-105.233465,Mexico,MX,Jalisco,,187134,180804
San Cristóbal de las Casas,16.731757,-92.64126,Mexico,MX,Chiapas,minor,186661,128996
Chilpancingo,17.550599,-99.505783,Mexico,MX,Guerrero,admin,182387,165250
Nogales,31.314631,-110.94683,Mexico,MX,Sonora,minor,178097,20707
Teziutlan,19.8173,-97.35992,Mexico,MX,Puebla,,177796,70819
Ciudad Lázaro Cárdenas,17.970661,-102.221243,Mexico,MX,Michoacán de Ocampo,,160087,84001
Ciudad del Carmen,18.64774,-91.824235,Mexico,MX,Campeche,minor,156195,141308
Chetumal,18.514126,-88.303813,Mexico,MX,Quintana Roo,admin,154517,134412
San Juan del Río,20.38886,-99.995769,Mexico,MX,Querétaro,minor,147559,118173
Ejido Piedras Negras,28.723359,-100.56696,Mexico,MX,Coahuila de Zaragoza,,139619,134971
Navojoa,27.070284,-109.443716,Mexico,MX,Sonora,minor,116093,116093
Ciudad Valles,21.996314,-99.01093,Mexico,MX,San Luis Potosí,,114964,109504
Delicias,28.192864,-105.471128,Mexico,MX,Chihuahua,minor,114783,102969
Guanajuato,21.018268,-101.256979,Mexico,MX,Guanajuato,admin,112200,78364
Manzanillo,19.04993,-104.315426,Mexico,MX,Colima,minor,110735,59738
Tuxpilla,20.916667,-97.416667,Mexico,MX,Veracruz,,109049,8331
Escuintla,15.321243,-92.659453,Mexico,MX,Chiapas,minor,107638,8989
El Fresno,23.161149,-102.828838,Mexico,MX,Zacatecas,,105488,99771
Heroica Guaymas,27.91928,-110.897551,Mexico,MX,Sonora,,103449,65544
Guasavito,25.552978,-108.435011,Mexico,MX,Sinaloa,,96860,68449
Lagos de Moreno,21.356657,-101.937681,Mexico,MX,Jalisco,minor,94127,84677
Ciudad Guzmán,19.704663,-103.461702,Mexico,MX,Jalisco,,92161,88799
Tecomán,18.947664,-103.900403,Mexico,MX,Colima,,91321,79579
Cuauhtémoc,28.408842,-106.863193,Mexico,MX,Chihuahua,,90835,79100
Agua Prieta,31.330706,-109.548756,Mexico,MX,Sonora,minor,86083,68446
Salina Cruz,16.197501,-95.202188,Mexico,MX,Oaxaca,,81063,73648
Ciudad Mante,22.743043,-98.973903,Mexico,MX,Tamaulipas,,79981,76618
Tamazunchale,21.259926,-98.789351,Mexico,MX,San Luis Potosí,,72685,21532
Ríoverde,21.931146,-99.994879,Mexico,MX,San Luis Potosí,minor,69613,48854
Matehuala,23.648243,-100.643337,Mexico,MX,San Luis Potosí,,67717,59532
Ciudad Hidalgo,19.692697,-100.554449,Mexico,MX,Michoacán de Ocampo,minor,64154,54993
Guamúchil,25.459776,-108.075297,Mexico,MX,Sinaloa,,62695,59276
Linares,24.859088,-99.56551,Mexico,MX,Nuevo León,minor,57731,46968
Heroica Caborca,30.718253,-112.158217,Mexico,MX,Sonora,minor,57357,52896
Nuevo Casas Grandes,30.422983,-107.909475,Mexico,MX,Chihuahua,,54826,51356
San Pedro de Las Colonias,25.756019,-102.983845,Mexico,MX,Coahuila de Zaragoza,minor,53688,53688
Valladolid,20.689967,-88.202155,Mexico,MX,Yucatán,,48479,39663
Ciudad de Huajuapam de León,17.807872,-97.779561,Mexico,MX,Oaxaca,minor,47844,35689
Autlán,19.79905,-104.357751,Mexico,MX,Jalisco,,47669,42155
Progreso,21.283064,-89.661232,Mexico,MX,Yucatán,minor,47124,20661
Santo Domingo Tehuantepec,16.318534,-95.247662,Mexico,MX,Oaxaca,minor,42776,37389
Morelos,25.176891,-99.830307,Mexico,MX,Nuevo León,,42640,37694
Cabo San Lucas,22.89055,-109.916386,Mexico,MX,Baja California Sur,,42601,36384
Tizimín,21.142681,-88.151009,Mexico,MX,Yucatán,minor,41993,40652
Ciudad Constitución,25.032097,-111.662558,Mexico,MX,Baja California Sur,minor,39915,35296
Ciudad Camargo,27.678417,-105.171362,Mexico,MX,Chihuahua,,37743,34066
Nueva Rosita,27.940276,-101.218117,Mexico,MX,Coahuila de Zaragoza,,36642,34851
Las Marías,20.290605,-102.561758,Mexico,MX,Jalisco,,35345,34449
Pánuco,22.053725,-98.18498,Mexico,MX,Veracruz,,35316,31583
Cananea,30.986988,-110.290621,Mexico,MX,Sonora,,33433,23818
Cuidad Sabinas Hidalgo,26.504628,-100.181101,Mexico,MX,Nuevo León,,32047,20198
Petatlán,17.537682,-101.26798,Mexico,MX,Guerrero,minor,31910,21038
Ticul,20.398332,-89.535411,Mexico,MX,Yucatán,,30519,30282
Huatabampo,26.8261,-109.6422,Mexico,MX,Sonora,,30426,25063
Ometepec,16.690084,-98.407975,Mexico,MX,Guerrero,,30271,17801
San Juan,24.856891,-98.116818,Mexico,MX,Tamaulipas,,29171,22021
Escuinapa de Hidalgo,22.832534,-105.775391,Mexico,MX,Sinaloa,,28248,28248
Champotón,19.34441,-90.725764,Mexico,MX,Campeche,,26636,24809
Tuxpan,21.94221,-105.2987,Mexico,MX,Nayarit,,26115,26115
Felipe Carrillo Puerto,19.577497,-88.04529,Mexico,MX,Quintana Roo,,24807,23109
Ciudad Altamirano,18.358199,-100.669649,Mexico,MX,Guerrero,,24533,24533
San Pedro Pochutla,15.745873,-96.466011,Mexico,MX,Oaxaca,minor,24481,13078
Paraiso,18.398772,-93.213137,Mexico,MX,Tabasco,,23830,4505
Pijijiapan,15.685991,-93.211087,Mexico,MX,Chiapas,minor,23675,15101
Tecax,20.205196,-89.28522,Mexico,MX,Yucatán,,22806,18348
San Miguel de Papasquiaro,24.830785,-105.336402,Mexico,MX,Durango,,22750,521
Frontera,18.533128,-92.647443,Mexico,MX,Tabasco,,22621,7407
Estación Ojinaga,29.532589,-104.39086,Mexico,MX,Chihuahua,,22128,17481
Tlaxiaco,17.228193,-97.771983,Mexico,MX,Oaxaca,,21391,14608
Motul,21.09571,-89.28332,Mexico,MX,Yucatán,,21253,21109
San Felipe,31.024679,-114.839188,Mexico,MX,Baja California,,20750,15386
Allende,28.34124,-100.851107,Mexico,MX,Coahuila de Zaragoza,minor,19636,16901
Puerto Escondido,15.870994,-97.075729,Mexico,MX,Oaxaca,,19488,11317
Santiago Ixcuintla,21.812952,-105.208437,Mexico,MX,Nayarit,,18365,15790
Miahuatlán,16.2,-96.616667,Mexico,MX,Oaxaca,,17632,15691
Peto,20.127761,-88.922818,Mexico,MX,Yucatán,,17607,8241
El Dorado,24.322832,-107.36298,Mexico,MX,Sinaloa,,17365,14136
Compostela,21.237774,-104.9001,Mexico,MX,Nayarit,,16162,14222
Santiago Tuxtla,18.465763,-95.300603,Mexico,MX,Veracruz,,15681,11515
Villa Unión,23.188629,-106.216452,Mexico,MX,Sinaloa,,15443,13683
Cardenas,22.001439,-99.642473,Mexico,MX,San Luis Potosí,,15331,15331
Izamal,20.935373,-89.018019,Mexico,MX,Yucatán,,14954,14186
Tecuala,22.398148,-105.458076,Mexico,MX,Nayarit,minor,14921,10583
Tamuin,22.005539,-98.779724,Mexico,MX,San Luis Potosí,,14748,7405
Juan Aldama,24.291883,-103.392716,Mexico,MX,Zacatecas,,14162,12073
Guerrero Negro,27.968907,-114.044275,Mexico,MX,Baja California,,13054,13054
Vicente Guerrero,30.730966,-115.990706,Mexico,MX,Baja California,,12829,1760
Isla Mujeres,21.236614,-86.734289,Mexico,MX,Quintana Roo,,12491,12491
Aldama,22.921573,-98.075191,Mexico,MX,Tamaulipas,,12292,10442
La Cruz,23.921263,-106.892496,Mexico,MX,Sinaloa,minor,11900,11155
Santa Rosalia,27.340455,-112.267607,Mexico,MX,Baja California Sur,,11899,10321
Balancán,17.850115,-91.531267,Mexico,MX,Tabasco,,11895,3438
Nacozari Viejo,30.308926,-109.686145,Mexico,MX,Sonora,,11872,11872
Ascensión,31.092603,-107.996867,Mexico,MX,Chihuahua,,11781,9741
Loreto,26.010687,-111.343743,Mexico,MX,Baja California Sur,,11227,10294
Villanueva,22.355268,-102.882643,Mexico,MX,Zacatecas,minor,11138,7049
Santa Bárbara,26.80381,-105.820242,Mexico,MX,Chihuahua,minor,10800,6027
Valparaíso,22.771042,-103.569908,Mexico,MX,Zacatecas,,10545,5368
Canatlán,24.525762,-104.773269,Mexico,MX,Durango,,10342,5271
Miguel Ahumada,30.615059,-106.514187,Mexico,MX,Chihuahua,,9326,7101
Halachó,20.477696,-90.081037,Mexico,MX,Yucatán,minor,9165,7067
Tula,22.996447,-99.711715,Mexico,MX,Tamaulipas,,9054,312
Cuencamé,24.871155,-103.697307,Mexico,MX,Durango,,8876,1956
San Antonio,30.470868,-115.954575,Mexico,MX,Baja California,,5433,5433
Esperanza,27.57916,-109.9298,Mexico,MX,Sonora,,3836,3836
Ejido Nautla,20.197394,-96.761902,Mexico,MX,Veracruz,,2890,2417
Altata,24.634032,-107.931007,Mexico,MX,Sinaloa,,1000,500
Punta Prieta,28.925882,-114.161385,Mexico,MX,Baja California,,527,527
San Felipe,21.478311,-101.215659,Mexico,MX,Guanajuato,minor,,
Santa Clara Huitziltepec,18.768896,-97.881175,Mexico,MX,Puebla,minor,,
Villa Unión,23.974602,-104.047048,Mexico,MX,Durango,minor,,
Villa Unión,28.222278,-100.726243,Mexico,MX,Coahuila de Zaragoza,minor,,
Camarón de Tejeda,19.021664,-96.615135,Mexico,MX,Veracruz,minor,,
Almoloya,19.704353,-98.403793,Mexico,MX,Hidalgo,minor,,
Albarradas,17.067519,-96.200124,Mexico,MX,Oaxaca,minor,,
Puruándiro,20.088865,-101.515786,Mexico,MX,México,minor,,
San Martín de las Pirámides,19.705818,-98.835536,Mexico,MX,México,minor,,
Panabá,21.295984,-88.269824,Mexico,MX,Yucatán,minor,,
Chila de la Sal,18.10975,-98.48574,Mexico,MX,Puebla,minor,,
Santiago Tenango,17.324893,-97.004673,Mexico,MX,Oaxaca,minor,,
Fortín de las Flores,18.901328,-96.999663,Mexico,MX,Veracruz,minor,,
Coyotepec,19.777222,-99.212948,Mexico,MX,Morelos,minor,,
Parral,26.930223,-105.6664,Mexico,MX,Chihuahua,minor,,
Ixtlahuacán,19.001188,-103.736377,Mexico,MX,Colima,minor,,
Ixtlahuaca,19.568805,-99.766942,Mexico,MX,México,minor,,
Valle de Allende,26.935265,-105.392706,Mexico,MX,Chihuahua,minor,,
Salto de Agua,17.554353,-92.339409,Mexico,MX,Chiapas,minor,,
Ciudad de Huitzuco,18.303337,-99.333757,Mexico,MX,Guerrero,minor,,
Huixquilucan de Degollado,19.360284,-99.349796,Mexico,MX,México,minor,,
Huixtán,16.710621,-92.45317,Mexico,MX,Chiapas,minor,,
Zacatepec,18.654088,-99.189815,Mexico,MX,Morelos,minor,,
Hecelchakán,20.177347,-90.133565,Mexico,MX,Campeche,minor,,
Emiliano Zapata,17.740583,-91.76635,Mexico,MX,Chiapas,minor,,
Capulhuac,19.193537,-99.465848,Mexico,MX,Morelos,minor,,
Numarán,20.255801,-101.949877,Mexico,MX,Michoacán de Ocampo,minor,,
Rayón,21.843288,-99.642579,Mexico,MX,San Luis Potosí,minor,,
Rayones,25.017989,-100.073617,Mexico,MX,Nuevo León,minor,,
Piedras Negras,28.69834,-100.530589,Mexico,MX,Coahuila de Zaragoza,minor,,
Cuetzala del Progreso,18.134719,-99.831901,Mexico,MX,Guerrero,minor,,
Cuetzalan,20.017655,-97.522773,Mexico,MX,Puebla,minor,,
Naupan,20.226295,-98.120476,Mexico,MX,Hidalgo,minor,,
Cualác,17.743502,-98.660394,Mexico,MX,Guerrero,minor,,
Pihuamo,19.25374,-103.379172,Mexico,MX,Jalisco,minor,,
Ocampo,19.582412,-100.339133,Mexico,MX,Michoacán de Ocampo,minor,,
Santa María Ecatepec,16.284985,-95.879967,Mexico,MX,Oaxaca,minor,,
Tlacuilotepec,20.325737,-98.068673,Mexico,MX,Puebla,minor,,
Tlacuitapan,21.198289,-102.124161,Mexico,MX,Jalisco,minor,,
San Gregorio Atzompa,19.023486,-98.348217,Mexico,MX,Puebla,minor,,
La Manzanilla de la Paz,20.004951,-103.154558,Mexico,MX,Jalisco,minor,,
Hueyotlipan,19.470876,-98.347784,Mexico,MX,Tlaxcala,minor,,
Hueytamalco,19.940287,-97.288475,Mexico,MX,Puebla,minor,,
Hueypoxtla,19.91301,-99.07384,Mexico,MX,Morelos,minor,,
Amaxac de Guerrero,19.346608,-98.170567,Mexico,MX,Tlaxcala,minor,,
Santiago Cacaloxtepec,17.721579,-97.740439,Mexico,MX,Oaxaca,minor,,
Atlacomulco de Fabela,19.799186,-99.875001,Mexico,MX,México,minor,,
San Sebastian Teitipac,16.95192,-96.61427,Mexico,MX,Oaxaca,minor,,
Ocuílan de Arteaga,18.977843,-99.419863,Mexico,MX,México,minor,,
Ocuituco,18.87731,-98.773234,Mexico,MX,Morelos,minor,,
Almoloya del Río,19.160458,-99.487395,Mexico,MX,Morelos,minor,,
Chucándiro,19.900077,-101.333797,Mexico,MX,Michoacán de Ocampo,minor,,
Nopalucán,19.218397,-97.822722,Mexico,MX,Puebla,minor,,
Villa de Zaachila,16.95098,-96.74938,Mexico,MX,Oaxaca,minor,,
Ixil,21.15235,-89.481816,Mexico,MX,Yucatán,minor,,
Pinotepa de Don Luis,16.427157,-97.976777,Mexico,MX,Oaxaca,minor,,
San Diego de la Unión,21.467486,-100.873104,Mexico,MX,Guanajuato,minor,,
San Andrés Huaxpaltepec,16.329515,-97.916471,Mexico,MX,Oaxaca,minor,,
San Andrés Calpan,19.103564,-98.461876,Mexico,MX,Puebla,minor,,
Perote,19.562325,-97.242351,Mexico,MX,Veracruz,minor,,
Doctor Coss,25.924921,-99.183161,Mexico,MX,Nuevo León,minor,,
Ajalpan,18.379084,-97.258668,Mexico,MX,Puebla,minor,,
Zempoala,19.915872,-98.666005,Mexico,MX,Hidalgo,minor,,
Tecolotlán,20.201671,-104.047484,Mexico,MX,Jalisco,minor,,
Unión de Tula,19.956461,-104.268053,Mexico,MX,Jalisco,minor,,
Unión de San Antonio,21.127136,-102.006188,Mexico,MX,Jalisco,minor,,
Ixpantepec Nieves,17.506902,-98.042643,Mexico,MX,Oaxaca,minor,,
San Sebastián Nicananduta,17.518278,-97.683497,Mexico,MX,Oaxaca,minor,,
Zacazonapan,19.073174,-100.255154,Mexico,MX,México,minor,,
Tequila,20.882051,-103.835994,Mexico,MX,Jalisco,minor,,
San Raymundo Jalpam,16.97164,-96.75699,Mexico,MX,Oaxaca,minor,,
Magdalena Mixtepec,16.896592,-96.906183,Mexico,MX,Oaxaca,minor,,
Magdalena Jaltepec,17.323176,-97.221216,Mexico,MX,Oaxaca,minor,,
Emiliano Zapata,19.558514,-97.917902,Mexico,MX,Tlaxcala,minor,,
Xicotlán,18.059185,-98.52457,Mexico,MX,Puebla,minor,,
Santiago,25.42533,-100.152046,Mexico,MX,Nuevo León,minor,,
Santa María Sola,16.566154,-97.01297,Mexico,MX,Oaxaca,minor,,
Huehuetla,20.105775,-97.625173,Mexico,MX,Puebla,minor,,
Huehuetoca,19.848358,-99.205549,Mexico,MX,Hidalgo,minor,,
Arteaga,18.357788,-102.291217,Mexico,MX,Michoacán de Ocampo,minor,,
Ixcapuzalco,18.512041,-99.887549,Mexico,MX,Guerrero,minor,,
Ixcateopan de Cuauhtémoc,18.50274,-99.792004,Mexico,MX,Guerrero,minor,,
San Juan Chilateca,16.83042,-96.66915,Mexico,MX,Oaxaca,minor,,
San Carlos Yautepec,16.496992,-96.10648,Mexico,MX,Oaxaca,minor,,
Tixpehual,20.97739,-89.442034,Mexico,MX,Yucatán,minor,,
Texcalyacac,19.132529,-99.501628,Mexico,MX,Morelos,minor,,
Jalpan,21.21802,-99.471517,Mexico,MX,Querétaro,minor,,
Jaltenco,19.753992,-99.093665,Mexico,MX,Morelos,minor,,
Tarandacuao,20.000939,-100.51856,Mexico,MX,Guanajuato,minor,,
Chiautla,19.549419,-98.879666,Mexico,MX,México,minor,,
Sitio de Xitlapehua,16.35139,-96.53215,Mexico,MX,Oaxaca,minor,,
Santiago Nundíche,17.331362,-97.673918,Mexico,MX,Oaxaca,minor,,
Santiago Nejapilla,17.419834,-97.374109,Mexico,MX,Oaxaca,minor,,
Santiago Nuyoó,17.014494,-97.766587,Mexico,MX,Oaxaca,minor,,
Tlapa de Comonfort,17.545279,-98.575989,Mexico,MX,Guerrero,minor,,
Tlapacoyan,19.962679,-97.211413,Mexico,MX,Veracruz,minor,,
Santo Domingo Yodohino,17.616937,-97.682888,Mexico,MX,Oaxaca,minor,,
Amatenango de la Frontera,15.434383,-92.115695,Mexico,MX,Chiapas,minor,,
Amatenango del Valle,16.528487,-92.431268,Mexico,MX,Chiapas,minor,,
Jamiltepec,16.282584,-97.824461,Mexico,MX,Oaxaca,minor,,
Santiago Lalopa,17.417856,-96.248927,Mexico,MX,Oaxaca,minor,,
Pénjamo,20.431078,-101.722607,Mexico,MX,Guanajuato,minor,,
Penjamillo de Degollado,20.1041,-101.934438,Mexico,MX,Michoacán de Ocampo,minor,,
Altotonga,19.766132,-97.245138,Mexico,MX,Veracruz,minor,,
Santa Gertrudis,16.7858,-96.80024,Mexico,MX,Oaxaca,minor,,
Jalcomulco,19.331848,-96.762495,Mexico,MX,Veracruz,minor,,
Tetipac,18.648346,-99.647285,Mexico,MX,Guerrero,minor,,
Martínez de la Torre,20.07082,-97.060782,Mexico,MX,Veracruz,minor,,
Teojomulco,16.590319,-97.224934,Mexico,MX,Oaxaca,minor,,
Kanasín,20.93482,-89.558714,Mexico,MX,Yucatán,minor,,
Coatzingo,18.611988,-98.172674,Mexico,MX,Puebla,minor,,
Xochiltepec,18.650946,-98.344503,Mexico,MX,Puebla,minor,,
Jiutepec,18.876449,-99.175822,Mexico,MX,Morelos,minor,,
Bochil,16.99625,-92.892181,Mexico,MX,Chiapas,minor,,
Villa Victoria,19.436927,-99.995885,Mexico,MX,México,minor,,
Nezahualcóyotl,19.387627,-98.992638,Mexico,MX,México,minor,,
Totolac,19.325796,-98.258337,Mexico,MX,Tlaxcala,minor,,
Yecuatla,19.866142,-96.778355,Mexico,MX,Veracruz,minor,,
Apetatitlán Antonio Carbajal,19.33622,-98.179123,Mexico,MX,Tlaxcala,minor,,
Izúcar de Matamoros,18.601566,-98.461521,Mexico,MX,Puebla,minor,,
Tlacolula de Matamoros,16.954711,-96.475901,Mexico,MX,Oaxaca,minor,,
Emiliano Zapata,18.840654,-99.184632,Mexico,MX,Morelos,minor,,
Sayula de Alemán,17.881911,-94.959862,Mexico,MX,Veracruz,minor,,
San Juanito de Escobedo,20.794365,-104.002454,Mexico,MX,Jalisco,minor,,
Santa María Mixtequilla,16.37496,-95.26034,Mexico,MX,Oaxaca,minor,,
Xico,19.421785,-97.008192,Mexico,MX,Veracruz,minor,,
Rosamorada,22.12208,-105.2064,Mexico,MX,Nayarit,minor,,
Cuapiaxtla,19.295882,-97.7688,Mexico,MX,Tlaxcala,minor,,
Cuanalá,19.109174,-98.327876,Mexico,MX,Puebla,minor,,
Montemorelos,25.189095,-99.828655,Mexico,MX,Nuevo León,minor,,
Santiago Tangamandapio,19.955681,-102.435457,Mexico,MX,México,minor,,
San Vicente Nuñu,17.456479,-97.44319,Mexico,MX,Oaxaca,minor,,
Temoac,18.773859,-98.778098,Mexico,MX,Morelos,minor,,
Cuilapan de Guerrero,16.977557,-96.780814,Mexico,MX,Oaxaca,minor,,
Valle de Juárez,19.93248,-102.943582,Mexico,MX,Jalisco,minor,,
Santa María Lachixío,16.728095,-97.019205,Mexico,MX,Oaxaca,minor,,
Totolapa,16.543567,-92.680191,Mexico,MX,Chiapas,minor,,
Teotitlán del Valle,17.029754,-96.519257,Mexico,MX,Oaxaca,minor,,
Teopisca,16.541821,-92.474047,Mexico,MX,Chiapas,minor,,
Atlatlahucan,18.934132,-98.898196,Mexico,MX,Morelos,minor,,
Atlautla,19.029204,-98.778756,Mexico,MX,México,minor,,
Totolapan,18.986548,-98.919225,Mexico,MX,Morelos,minor,,
Ocoyoacac,19.271271,-99.457871,Mexico,MX,Morelos,minor,,
Ocotlán de Morelos,16.79151,-96.674548,Mexico,MX,Oaxaca,minor,,
Tecoanapa,16.987708,-99.260019,Mexico,MX,Guerrero,minor,,
Tlacolulan,19.666873,-97.00194,Mexico,MX,Veracruz,minor,,
Yurécuaro,20.336059,-102.283823,Mexico,MX,Michoacán de Ocampo,minor,,
Santiago Comaltepec,17.56547,-96.54873,Mexico,MX,Oaxaca,minor,,
Santiago Chazumba,18.190117,-97.679831,Mexico,MX,Oaxaca,minor,,
Empalme,27.963395,-110.809114,Mexico,MX,Sonora,minor,,
Santa Ana del Valle,16.994882,-96.471122,Mexico,MX,Oaxaca,minor,,
San Cristóbal Amoltepec,17.284283,-97.572157,Mexico,MX,Oaxaca,minor,,
San Cristóbal Amatlán,16.317134,-96.40785,Mexico,MX,Oaxaca,minor,,
Santa Ana,30.540753,-111.118884,Mexico,MX,Sonora,minor,,
Tuxpan,19.567879,-100.461888,Mexico,MX,Michoacán de Ocampo,minor,,
Santa Cruz Xitla,16.323207,-96.673695,Mexico,MX,Oaxaca,minor,,
Jerécuaro,20.154667,-100.508596,Mexico,MX,Guanajuato,minor,,
Santa Isabel Cholula,18.994379,-98.379467,Mexico,MX,Puebla,minor,,
Santa Cruz Mixtepec,16.79283,-96.880717,Mexico,MX,Oaxaca,minor,,
Santa Cruz Tlaxcala,19.354676,-98.150756,Mexico,MX,Tlaxcala,minor,,
Tulancingo,20.083553,-98.362879,Mexico,MX,Hidalgo,minor,,
Santa María Tonameca,15.748048,-96.547045,Mexico,MX,Oaxaca,minor,,
Tlachichilco,17.622202,-98.343124,Mexico,MX,Oaxaca,minor,,
Valle Nacional,17.775787,-96.301737,Mexico,MX,Oaxaca,minor,,
Singuilucan,19.968745,-98.519349,Mexico,MX,Hidalgo,minor,,
Texistepec,17.89476,-94.817107,Mexico,MX,Veracruz,minor,,
Texcoco,19.511944,-98.882928,Mexico,MX,México,minor,,
Rafael J. García,19.254133,-97.183152,Mexico,MX,Puebla,minor,,
Tepecoacuilco de Trujano,18.287498,-99.464232,Mexico,MX,Guerrero,minor,,
Tepechitlán,21.670633,-103.326403,Mexico,MX,Zacatecas,minor,,
Tumbiscatío de Ruiz,18.526666,-102.378226,Mexico,MX,Michoacán de Ocampo,minor,,
Quimixtlán,19.253405,-97.136037,Mexico,MX,Puebla,minor,,
Jalpa,21.634484,-102.979186,Mexico,MX,Zacatecas,minor,,
Jalpa de Méndez,18.176328,-93.063004,Mexico,MX,Tabasco,minor,,
Miahuatlán de Porfirio Díaz,16.332762,-96.595622,Mexico,MX,Oaxaca,minor,,
Miacatlán,18.762028,-99.359444,Mexico,MX,Morelos,minor,,
Chiapilla,16.569753,-92.720369,Mexico,MX,Chiapas,minor,,
San Pedro Topiltepec,17.436325,-97.344026,Mexico,MX,Oaxaca,minor,,
San Pedro Tidaá,17.341221,-97.372388,Mexico,MX,Oaxaca,minor,,
Santiago Matatlán,16.864702,-96.382608,Mexico,MX,Oaxaca,minor,,
Santiago Miltepec,17.984606,-97.690055,Mexico,MX,Oaxaca,minor,,
Tlanepantla,18.863097,-97.887011,Mexico,MX,Puebla,minor,,
Comapa,19.164043,-96.886602,Mexico,MX,Veracruz,minor,,
Tlilapan,18.805603,-97.098669,Mexico,MX,Veracruz,minor,,
Amatitán,20.833884,-103.730757,Mexico,MX,Jalisco,minor,,
Naco,31.327006,-109.946685,Mexico,MX,Sonora,minor,,
El Salto,23.77781,-105.36192,Mexico,MX,Durango,minor,,
Malinalco,18.948472,-99.496187,Mexico,MX,México,minor,,
Hopelchén,19.746706,-89.84437,Mexico,MX,Campeche,minor,,
Ciudad General Escobedo,25.79698,-100.317913,Mexico,MX,Nuevo León,minor,,
Villa García,22.161689,-101.955557,Mexico,MX,Zacatecas,minor,,
Tejupilco de Hidalgo,18.904748,-100.15275,Mexico,MX,México,minor,,
Chiconcuac,19.55722,-98.897477,Mexico,MX,México,minor,,
Tetela del Volcán,18.893273,-98.729059,Mexico,MX,Morelos,minor,,
Coatecas Altas,16.539264,-96.668783,Mexico,MX,Oaxaca,minor,,
Zimatlán de Álvarez,16.86939,-96.784352,Mexico,MX,Oaxaca,minor,,
Mier,26.429695,-99.152123,Mexico,MX,Tamaulipas,minor,,
Jiquílpan de Juárez,19.994825,-102.719694,Mexico,MX,México,minor,,
San Juan Quiotepec,17.601561,-96.587306,Mexico,MX,Oaxaca,minor,,
Mazapa,15.387732,-92.187805,Mexico,MX,Chiapas,minor,,
Mazatán,14.863193,-92.4503,Mexico,MX,Chiapas,minor,,
Zacualpan,18.71895,-99.77605,Mexico,MX,México,minor,,
Álvaro Obregón,19.820963,-101.040084,Mexico,MX,Michoacán de Ocampo,minor,,
Yaxkukul,21.061389,-89.419321,Mexico,MX,Yucatán,minor,,
Zoquitlán,18.335225,-97.017447,Mexico,MX,Puebla,minor,,
San Mateo Mexicaltzingo,19.2113,-99.584692,Mexico,MX,México,minor,,
Chalchihuitán,16.964445,-92.619029,Mexico,MX,Chiapas,minor,,
San Pablo Coatlán,16.224288,-96.78379,Mexico,MX,Oaxaca,minor,,
San Pablo de las Tunas,18.994196,-97.70787,Mexico,MX,Puebla,minor,,
San Vicente Coatlán,16.388522,-96.8439,Mexico,MX,Oaxaca,minor,,
Ixtlán del Río,21.039071,-104.371156,Mexico,MX,Nayarit,minor,,
Santo Domingo de Morelos,15.83397,-96.66695,Mexico,MX,Oaxaca,minor,,
Jojutla,18.615162,-99.179795,Mexico,MX,Morelos,minor,,
Doctor Mora,21.142462,-100.319662,Mexico,MX,Guanajuato,minor,,
Pinos,22.295711,-101.575792,Mexico,MX,Zacatecas,minor,,
Ecatzingo,18.958824,-98.748026,Mexico,MX,México,minor,,
Tinum,20.767788,-88.391639,Mexico,MX,Yucatán,minor,,
Cherán,19.685363,-101.953684,Mexico,MX,Michoacán de Ocampo,minor,,
Tolcayuca,19.958141,-98.919413,Mexico,MX,Morelos,minor,,
Huetamo de Núñez,18.629263,-100.897001,Mexico,MX,Michoacán de Ocampo,minor,,
La Pe,16.63027,-96.797661,Mexico,MX,Oaxaca,minor,,
Taniche,16.568596,-96.755137,Mexico,MX,Oaxaca,minor,,
Abasolo,25.945953,-100.395845,Mexico,MX,Nuevo León,minor,,
Abasolo,20.44997,-101.530728,Mexico,MX,Guanajuato,minor,,
Chilcuautla,20.330589,-99.231172,Mexico,MX,Hidalgo,minor,,
Totatiche,21.928403,-103.444047,Mexico,MX,Jalisco,minor,,
Cadereyta,20.697011,-99.816236,Mexico,MX,Querétaro,minor,,
Teopantlán,18.712188,-98.263407,Mexico,MX,Puebla,minor,,
Atlequizayan,20.012142,-97.624229,Mexico,MX,Puebla,minor,,
Oquitoa,30.741973,-111.734628,Mexico,MX,Sonora,minor,,
Acatlán,20.145623,-98.439587,Mexico,MX,Hidalgo,minor,,
Zacapú,19.813963,-101.791575,Mexico,MX,Michoacán de Ocampo,minor,,
San Baltazar Chichicapam,16.761514,-96.489702,Mexico,MX,Oaxaca,minor,,
San Baltazar Loxicha,16.076696,-96.787397,Mexico,MX,Oaxaca,minor,,
Tlapanalá,18.695847,-98.535607,Mexico,MX,Puebla,minor,,
Emiliano Zapata,19.654902,-98.544971,Mexico,MX,Hidalgo,minor,,
Santa Ana Maya,20.006895,-101.021888,Mexico,MX,Michoacán de Ocampo,minor,,
San Cristóbal Lachirioag,17.335823,-96.16503,Mexico,MX,Oaxaca,minor,,
Sanctorum,19.493334,-98.471557,Mexico,MX,Tlaxcala,minor,,
Bejucal de Ocampo,15.455349,-92.158352,Mexico,MX,Chiapas,minor,,
Mapastepec,15.441663,-92.895962,Mexico,MX,Chiapas,minor,,
Ameca,20.546288,-104.045082,Mexico,MX,Jalisco,minor,,
Tecámac,19.712882,-98.968955,Mexico,MX,México,minor,,
Santa Cruz Tayata,17.357175,-97.568429,Mexico,MX,Oaxaca,minor,,
Santa María del Rosario,17.352758,-97.594803,Mexico,MX,Oaxaca,minor,,
San Juan Ñumí,17.397338,-97.706244,Mexico,MX,Oaxaca,minor,,
Santiago Tilantongo,17.28464,-97.338789,Mexico,MX,Oaxaca,minor,,
Otzoloapan,19.117278,-100.296839,Mexico,MX,México,minor,,
Mineral del Monte,20.138296,-98.673641,Mexico,MX,Hidalgo,minor,,
Santiago Tulantepec,20.036178,-98.355631,Mexico,MX,Hidalgo,minor,,
Huépac,29.911347,-110.21323,Mexico,MX,Sonora,minor,,
San Lucas Quiavini,16.895554,-96.468127,Mexico,MX,Oaxaca,minor,,
Arroyo Seco,21.547773,-99.688315,Mexico,MX,Querétaro,minor,,
Ixhuatlancillo,18.897665,-97.148988,Mexico,MX,Veracruz,minor,,
Zaragoza,28.493198,-100.9223,Mexico,MX,Coahuila de Zaragoza,minor,,
Nuevo Necaxa,20.210492,-98.006575,Mexico,MX,Puebla,minor,,
Coyutla,20.247197,-97.658244,Mexico,MX,Veracruz,minor,,
Benito Juárez,19.313508,-100.433577,Mexico,MX,Michoacán de Ocampo,minor,,
San José Acateno,20.130669,-97.209973,Mexico,MX,Puebla,minor,,
Tepeapulco,19.788401,-98.552656,Mexico,MX,Hidalgo,minor,,
Tepatlaxco,19.080431,-97.969528,Mexico,MX,Puebla,minor,,
Tepeaca,18.966884,-97.899798,Mexico,MX,Puebla,minor,,
Tepatlaxco,19.069268,-96.844806,Mexico,MX,Veracruz,minor,,
Tapeixtles,19.069125,-104.283387,Mexico,MX,Colima,minor,,
Indaparapeo,19.787671,-100.969073,Mexico,MX,Michoacán de Ocampo,minor,,
San Agustín Chayuco,16.402335,-97.808228,Mexico,MX,Oaxaca,minor,,
San Pedro Taviche,16.638576,-96.53687,Mexico,MX,Oaxaca,minor,,
Sección Primera Santiago Tetla,19.432764,-98.104075,Mexico,MX,Tlaxcala,minor,,
Chavinda,20.006249,-102.460154,Mexico,MX,Michoacán de Ocampo,minor,,
Santa Catarina Cuixtla,16.306156,-96.642357,Mexico,MX,Oaxaca,minor,,
Chimaltitán,21.77977,-103.780708,Mexico,MX,Jalisco,minor,,
Ixtapan de la Sal,18.843685,-99.676708,Mexico,MX,México,minor,,
Villa de Reyes,21.803094,-100.934182,Mexico,MX,San Luis Potosí,minor,,
Santa Clara del Cobre,19.405799,-101.639981,Mexico,MX,Michoacán de Ocampo,minor,,
Coatepec,19.452293,-96.96148,Mexico,MX,Veracruz,minor,,
Coatepec Harinas,18.925294,-99.76825,Mexico,MX,México,minor,,
Atarjea,21.267766,-99.719137,Mexico,MX,Guanajuato,minor,,
San Francisco Chindúa,17.42809,-97.31266,Mexico,MX,Oaxaca,minor,,
San Lucas,18.590308,-100.785288,Mexico,MX,Michoacán de Ocampo,minor,,
San Miguel Ejutla,16.580531,-96.738974,Mexico,MX,Oaxaca,minor,,
Tepeojuma,18.72468,-98.44633,Mexico,MX,Puebla,minor,,
Apaseo el Alto,20.457982,-100.620807,Mexico,MX,Guanajuato,minor,,
Tenango de Arista,19.104463,-99.589803,Mexico,MX,Morelos,minor,,
Ixhuacán de los Reyes,19.355257,-97.117508,Mexico,MX,Puebla,minor,,
San Nicolás,16.420098,-96.741327,Mexico,MX,Oaxaca,minor,,
Quechultenango,17.414253,-99.242212,Mexico,MX,Guerrero,minor,,
Tacámbaro de Codallos,19.235018,-101.458241,Mexico,MX,Michoacán de Ocampo,minor,,
Teotihuacán,19.688617,-98.8611,Mexico,MX,México,minor,,
Mazatepec,18.727954,-99.363387,Mexico,MX,Morelos,minor,,
Mazatecochco,19.17865,-98.186769,Mexico,MX,Tlaxcala,minor,,
Churumuco de Morelos,18.663328,-101.647409,Mexico,MX,Michoacán de Ocampo,minor,,
Hidalgo,25.97205,-100.450293,Mexico,MX,Nuevo León,minor,,
Cañitas de Felipe Pescador,23.603707,-102.727035,Mexico,MX,Zacatecas,minor,,
Mina,26.001716,-100.530067,Mexico,MX,Nuevo León,minor,,
Sochiapa,19.192922,-96.939888,Mexico,MX,Veracruz,minor,,
Yaxe,16.725951,-96.471906,Mexico,MX,Oaxaca,minor,,
San Mateo Atenco,19.267569,-99.532142,Mexico,MX,Morelos,minor,,
San Mateo Cajonos,17.161468,-96.207774,Mexico,MX,Oaxaca,minor,,
Matamoros,26.762089,-105.585226,Mexico,MX,Chihuahua,minor,,
San Vicente Lachixío,16.705018,-97.018637,Mexico,MX,Oaxaca,minor,,
San Juan del Estado,17.2743,-96.79912,Mexico,MX,Oaxaca,minor,,
Coquimatlán,19.206246,-103.809517,Mexico,MX,Colima,minor,,
Técpan de Galeana,17.219765,-100.630322,Mexico,MX,Guerrero,minor,,
Santa Eulalia,28.594496,-105.887956,Mexico,MX,Chihuahua,minor,,
Ezequiel Montes,20.664806,-99.899598,Mexico,MX,Querétaro,minor,,
Villa Hidalgo,17.184091,-96.178307,Mexico,MX,Oaxaca,minor,,
Acanceh,20.812691,-89.45295,Mexico,MX,Yucatán,minor,,
Santa Catarina,21.141871,-100.069935,Mexico,MX,Guanajuato,minor,,
Victoria,21.211825,-100.215445,Mexico,MX,Guanajuato,minor,,
Huehuetla,20.460499,-98.076269,Mexico,MX,Hidalgo,minor,,
San Esteban Atatlahuca,17.067162,-97.678361,Mexico,MX,Oaxaca,minor,,
Cuautempan,19.913801,-97.794982,Mexico,MX,Puebla,minor,,
Nogales,18.827757,-97.163108,Mexico,MX,Veracruz,minor,,
Tingambato,19.50109,-101.853275,Mexico,MX,Michoacán de Ocampo,minor,,
San Ignacio,23.941046,-106.424675,Mexico,MX,Sinaloa,minor,,
Degollado,20.44696,-102.134856,Mexico,MX,Jalisco,minor,,
Domingo Arenas,19.139978,-98.456785,Mexico,MX,Puebla,minor,,
Socoltenango,16.244836,-92.350377,Mexico,MX,Chiapas,minor,,
Soconusco,17.963149,-94.880974,Mexico,MX,Veracruz,minor,,
Atenguillo,20.415531,-104.493869,Mexico,MX,Jalisco,minor,,
Santa Ana,16.341389,-96.71697,Mexico,MX,Oaxaca,minor,,
Morelos,28.406761,-100.888542,Mexico,MX,Coahuila de Zaragoza,minor,,
Espita,21.010981,-88.306808,Mexico,MX,Yucatán,minor,,
San Simón de Guerrero,19.02276,-100.006452,Mexico,MX,México,minor,,
San Simón Almolongas,16.406595,-96.719267,Mexico,MX,Oaxaca,minor,,
Santiago Tillo,17.460851,-97.320192,Mexico,MX,Oaxaca,minor,,
San Martín Tilcajete,16.86008,-96.6949,Mexico,MX,Oaxaca,minor,,
Acatzingo,18.981962,-97.783633,Mexico,MX,Puebla,minor,,
Acaxochitlán,20.157889,-98.201725,Mexico,MX,Hidalgo,minor,,
Acaxtlahuacán de Albino Zertuche,18.01714,-98.54018,Mexico,MX,Puebla,minor,,
San Andrés Solaga,17.272542,-96.2361,Mexico,MX,Oaxaca,minor,,
Zacapala,18.594152,-98.06583,Mexico,MX,Puebla,minor,,
Santos Reyes Tepejillo,17.43782,-97.93845,Mexico,MX,Oaxaca,minor,,
El Grullo,19.806027,-104.218046,Mexico,MX,Jalisco,minor,,
La Barca,20.287842,-102.545139,Mexico,MX,Jalisco,minor,,
Julimes,28.423759,-105.427269,Mexico,MX,Chihuahua,minor,,
Cohuecán,18.782675,-98.720854,Mexico,MX,Puebla,minor,,
Irimbo,19.700831,-100.478468,Mexico,MX,Michoacán de Ocampo,minor,,
Coalcomán de Vázquez Pallares,18.779044,-103.161204,Mexico,MX,Michoacán de Ocampo,minor,,
Tocatlán,19.388645,-98.027398,Mexico,MX,Tlaxcala,minor,,
Tochtepec,18.839278,-97.822825,Mexico,MX,Puebla,minor,,
Tochimilco,18.890621,-98.571536,Mexico,MX,Puebla,minor,,
Tequixquiac,19.909291,-99.14531,Mexico,MX,Morelos,minor,,
Mineral de Angangueo,19.619324,-100.285329,Mexico,MX,Michoacán de Ocampo,minor,,
Santa María del Tule,17.047119,-96.635726,Mexico,MX,Oaxaca,minor,,
Jaltepetongo,17.686234,-97.035689,Mexico,MX,Oaxaca,minor,,
Ixmiquilpan,20.47841,-99.216974,Mexico,MX,Hidalgo,minor,,
Axapusco,19.724561,-98.758629,Mexico,MX,México,minor,,
Aquila,18.795648,-97.308445,Mexico,MX,Veracruz,minor,,
Viesca,25.339228,-102.804929,Mexico,MX,Coahuila de Zaragoza,minor,,
Tapalpa,19.945634,-103.759542,Mexico,MX,Jalisco,minor,,
Tezoatlán de Segura y Luna,17.65388,-97.810682,Mexico,MX,Oaxaca,minor,,
Xalatlaco,19.183143,-99.418435,Mexico,MX,México,minor,,
Huiramba,19.546061,-101.43651,Mexico,MX,Michoacán de Ocampo,minor,,
San Jerónimo Taviche,16.714677,-96.593597,Mexico,MX,Oaxaca,minor,,
San Jerónimo Xayacatlán,18.220337,-97.912878,Mexico,MX,Puebla,minor,,
Tataltepec de Valdés,16.30549,-97.546154,Mexico,MX,Oaxaca,minor,,
Santiago Tetepec,16.321715,-97.747941,Mexico,MX,Oaxaca,minor,,
Pinotepa,16.340136,-98.052968,Mexico,MX,Oaxaca,minor,,
Santiago Suchilquitongo,17.253159,-96.878252,Mexico,MX,Oaxaca,minor,,
San Luis de la Paz,21.297713,-100.517363,Mexico,MX,Guanajuato,minor,,
Santa Catarina Quiané,16.88255,-96.74067,Mexico,MX,Oaxaca,minor,,
Santa Catarina Minas,16.779686,-96.615356,Mexico,MX,Oaxaca,minor,,
Santa Catarina Mechoacán,16.335909,-97.837069,Mexico,MX,Oaxaca,minor,,
Santa Catarina Loxicha,16.068638,-96.753906,Mexico,MX,Oaxaca,minor,,
San Mateo Nejápam,17.65604,-98.416623,Mexico,MX,Oaxaca,minor,,
Huasca de Ocampo,20.203571,-98.576029,Mexico,MX,Hidalgo,minor,,
Santa María Jalapa del Marqués,16.440267,-95.444542,Mexico,MX,Oaxaca,minor,,
Tenancingo,18.961358,-99.590303,Mexico,MX,México,minor,,
San Francisco Cajonos,17.170905,-96.250239,Mexico,MX,Oaxaca,minor,,
Texmelucan,16.585103,-97.199068,Mexico,MX,Oaxaca,minor,,
Xochitepec,18.7808,-99.23049,Mexico,MX,Morelos,minor,,
San Miguel del Puerto,15.921695,-96.174994,Mexico,MX,Oaxaca,minor,,
San Andrés Dinicuiti,17.688123,-97.726686,Mexico,MX,Oaxaca,minor,,
Apazapan,19.320719,-96.71874,Mexico,MX,Veracruz,minor,,
Apaxco de Ocampo,19.975125,-99.171116,Mexico,MX,Hidalgo,minor,,
Apaxtla de Castrejón,18.13127,-99.93255,Mexico,MX,Guerrero,minor,,
Tenabo,20.039812,-90.225729,Mexico,MX,Campeche,minor,,
Tianguismanalco,18.97624,-98.448613,Mexico,MX,Puebla,minor,,
Zacatlán,19.935504,-97.961246,Mexico,MX,Puebla,minor,,
Álamo,20.911541,-97.675543,Mexico,MX,Veracruz,minor,,
Nahuatzén,19.655061,-101.917041,Mexico,MX,Michoacán de Ocampo,minor,,
Omitlán de Juárez,20.169797,-98.648418,Mexico,MX,Hidalgo,minor,,
El Limón,19.825459,-104.156328,Mexico,MX,Jalisco,minor,,
Aquixtla,19.795816,-97.935533,Mexico,MX,Puebla,minor,,
Otumba,19.69985,-98.756379,Mexico,MX,México,minor,,
Nombre de Dios,23.847085,-104.245799,Mexico,MX,Durango,minor,,
San Jerónimo Tlacochahuaya,17.008738,-96.582748,Mexico,MX,Oaxaca,minor,,
Heróica Zitácuaro,19.436124,-100.357332,Mexico,MX,Michoacán de Ocampo,minor,,
Balancán,17.809031,-91.536815,Mexico,MX,Tabasco,minor,,
Altepexi,18.370346,-97.299657,Mexico,MX,Puebla,minor,,
Acapetlahuaya,18.419418,-100.072365,Mexico,MX,Guerrero,minor,,
Acaponeta,22.493959,-105.363693,Mexico,MX,Nayarit,minor,,
Oxchuc,16.785878,-92.344548,Mexico,MX,Chiapas,minor,,
El Arenal,20.775379,-103.693529,Mexico,MX,Jalisco,minor,,
Coixtlahuaca,17.720212,-97.318797,Mexico,MX,Oaxaca,minor,,
Animas Trujano,16.990861,-96.713194,Mexico,MX,Oaxaca,minor,,
San Juan Tabaá,17.304954,-96.207179,Mexico,MX,Oaxaca,minor,,
Santo Domingo Roayaga,17.33782,-96.115062,Mexico,MX,Oaxaca,minor,,
San Martín Itunyoso,17.22743,-97.879489,Mexico,MX,Oaxaca,minor,,
San Juan Juquila Vijanos,17.353721,-96.303849,Mexico,MX,Oaxaca,minor,,
Ixtenco,19.25146,-97.894117,Mexico,MX,Tlaxcala,minor,,
San Juán Lachigalla,16.589469,-96.550515,Mexico,MX,Oaxaca,minor,,
San Nicolás de los Ranchos,19.07139,-98.48601,Mexico,MX,Puebla,minor,,
Venustiano Carranza,20.115531,-102.653908,Mexico,MX,Michoacán de Ocampo,minor,,
San Agustín Yatareni,17.081982,-96.665784,Mexico,MX,Oaxaca,minor,,
Silao,20.94356,-101.427032,Mexico,MX,Guanajuato,minor,,
San Jerónimo Silacayoapilla,17.810212,-97.844876,Mexico,MX,Oaxaca,minor,,
San Jerónimo Sosola,17.366849,-97.032913,Mexico,MX,Oaxaca,minor,,
Cunduacán,18.065569,-93.17302,Mexico,MX,Tabasco,minor,,
Ahuacatlán,21.05405,-104.483982,Mexico,MX,Nayarit,minor,,
Acayucan,17.949787,-94.91386,Mexico,MX,Veracruz,minor,,
Chumatlán,20.206098,-97.594018,Mexico,MX,Puebla,minor,,
Río Blanco,18.830364,-97.156001,Mexico,MX,Veracruz,minor,,
Nochistlán de Mejía,21.364349,-102.845903,Mexico,MX,Zacatecas,minor,,
Coeneo de la Libertad,19.82195,-101.5847,Mexico,MX,Michoacán de Ocampo,minor,,
Santo Domingo Tomaltepec,17.061169,-96.6228,Mexico,MX,Oaxaca,minor,,
Tonila,19.41112,-103.547868,Mexico,MX,Jalisco,minor,,
San Francisco Lachigoló,17.016237,-96.599466,Mexico,MX,Oaxaca,minor,,
San Miguel Panixtlahuaca,16.260135,-97.377962,Mexico,MX,Oaxaca,minor,,
Tamasopo,21.921104,-99.394219,Mexico,MX,San Luis Potosí,minor,,
Texcaltitlán,18.93032,-99.938702,Mexico,MX,México,minor,,
Acajete,19.111545,-97.952315,Mexico,MX,Puebla,minor,,
Mexticacán,21.265909,-102.778264,Mexico,MX,Jalisco,minor,,
Tepeyahualco,18.814277,-97.877018,Mexico,MX,Puebla,minor,,
Tuxtla,16.759727,-93.113081,Mexico,MX,Chiapas,admin,,
Tuzamapan,20.065719,-97.575199,Mexico,MX,Puebla,minor,,
Coahuayutla de Guerrero,18.314691,-101.73574,Mexico,MX,Guerrero,minor,,
Atenco,19.550648,-98.916789,Mexico,MX,México,minor,,
Santiago Ayuquililla,17.933095,-97.95769,Mexico,MX,Oaxaca,minor,,
Santiago Astata,15.987752,-95.675709,Mexico,MX,Oaxaca,minor,,
Santiago Atzitzihuacán,18.82334,-98.583811,Mexico,MX,Puebla,minor,,
Santa María Huatulco,15.83267,-96.32063,Mexico,MX,Oaxaca,minor,,
Santa María Huazolotitlán,16.303587,-97.912926,Mexico,MX,Oaxaca,minor,,
Santa María Jacatepec,17.861298,-96.20849,Mexico,MX,Oaxaca,minor,,
Ostuacán,17.406636,-93.336432,Mexico,MX,Chiapas,minor,,
Ixtacamaxtitlán,19.623518,-97.815389,Mexico,MX,Puebla,minor,,
Ixtaczoquitlán,18.85364,-97.062288,Mexico,MX,Veracruz,minor,,
Santa Cruz de Bravo,17.580961,-98.223784,Mexico,MX,Oaxaca,minor,,
Tezontepec,19.880627,-98.819723,Mexico,MX,Hidalgo,minor,,
San Miguel Zinacantepec,19.28428,-99.733935,Mexico,MX,México,minor,,
Santa María Yucuhiti,17.018732,-97.769513,Mexico,MX,Oaxaca,minor,,
Santa Rita Tlahuapan,19.332106,-98.576875,Mexico,MX,Puebla,minor,,
San José Chiltepec,17.947338,-96.169572,Mexico,MX,Oaxaca,minor,,
San José Chiapa,19.241046,-97.766418,Mexico,MX,Puebla,minor,,
Maltrata,18.81091,-97.275382,Mexico,MX,Veracruz,minor,,
San Jerónimo Coatlán,16.232114,-96.870469,Mexico,MX,Oaxaca,minor,,
San Jerónimo de Juárez,17.139155,-100.470672,Mexico,MX,Guerrero,minor,,
San Luis Acatlán,16.809012,-98.733313,Mexico,MX,Guerrero,minor,,
San Luis Amatlán,16.38652,-96.49824,Mexico,MX,Oaxaca,minor,,
Valle de Bravo,19.195011,-100.131321,Mexico,MX,México,minor,,
Zacualpan de Amilpas,18.787179,-98.768009,Mexico,MX,Morelos,minor,,
Carmen,25.936501,-100.363961,Mexico,MX,Nuevo León,minor,,
Santa Cruz Nundaco,17.171093,-97.723823,Mexico,MX,Oaxaca,minor,,
Soledad de Doblado,19.046368,-96.421422,Mexico,MX,Veracruz,minor,,
Huaniqueo de Morales,19.89682,-101.5045,Mexico,MX,México,minor,,
Huejotzingo,19.158924,-98.408235,Mexico,MX,Puebla,minor,,
Temamatla,19.203058,-98.869213,Mexico,MX,México,minor,,
Temascalapa,19.827664,-98.901715,Mexico,MX,Hidalgo,minor,,
Chicxulub Pueblo,21.136169,-89.516249,Mexico,MX,Yucatán,minor,,
Tezoyuca,19.592829,-98.910842,Mexico,MX,México,minor,,
San Pablo Cuatro Venados,16.981202,-96.891034,Mexico,MX,Oaxaca,minor,,
San Miguel Mixtepec,16.777186,-96.957256,Mexico,MX,Oaxaca,minor,,
San Antonio la Isla,19.164406,-99.566849,Mexico,MX,Morelos,minor,,
San Lorenzo Chiautzingo,19.204321,-98.467473,Mexico,MX,Puebla,minor,,
Xonacatlán,19.40513,-99.528069,Mexico,MX,Morelos,minor,,
San Miguel de Allende,20.914423,-100.746027,Mexico,MX,Guanajuato,minor,,
Juchitepec,19.10059,-98.878802,Mexico,MX,México,minor,,
Juchitán de Zaragoza,16.43603,-95.01975,Mexico,MX,Oaxaca,minor,,
Juchique de Ferrer,19.839854,-96.694628,Mexico,MX,Veracruz,minor,,
Cacahoatán,14.992005,-92.163759,Mexico,MX,Chiapas,minor,,
Apan,19.711278,-98.450858,Mexico,MX,Hidalgo,minor,,
Tenampa,19.248772,-96.883899,Mexico,MX,Veracruz,minor,,
Tenamaxtlán,20.217417,-104.164585,Mexico,MX,Jalisco,minor,,
San Juan Yaee,17.43,-96.283545,Mexico,MX,Oaxaca,minor,,
Mazamitla,19.916103,-103.020272,Mexico,MX,Jalisco,minor,,
San Felipe de Jesús,29.85,-110.233333,Mexico,MX,Sonora,minor,,
San Francisco Jaltepetongo,17.385788,-97.264814,Mexico,MX,Oaxaca,minor,,
San Francisco Nuxaño,17.381733,-97.342623,Mexico,MX,Oaxaca,minor,,
Pitiquito,30.67663,-112.054656,Mexico,MX,Sonora,minor,,
Trincheras,30.398061,-111.530186,Mexico,MX,Sonora,minor,,
Briseñas de Matamoros,20.268208,-102.561952,Mexico,MX,Michoacán de Ocampo,minor,,
Yaxcabá,20.548459,-88.827137,Mexico,MX,Yucatán,minor,,
Tlacotepec de Mejía,19.189459,-96.83805,Mexico,MX,Veracruz,minor,,
San Lorenzo Albarradas,16.911289,-96.258255,Mexico,MX,Oaxaca,minor,,
San Juan Petlapa,17.469158,-96.036098,Mexico,MX,Oaxaca,minor,,
Amacueca,20.010693,-103.599834,Mexico,MX,Jalisco,minor,,
Amacuzac,18.599094,-99.36947,Mexico,MX,Morelos,minor,,
Copándaro de Galeana,19.892542,-101.213937,Mexico,MX,Michoacán de Ocampo,minor,,
Huitzilan,19.967505,-97.694409,Mexico,MX,Puebla,minor,,
Almoloya de Juárez,19.370365,-99.757203,Mexico,MX,México,minor,,
Valle de Santiago,20.3914,-101.192225,Mexico,MX,Guanajuato,minor,,
Acala,16.556253,-92.804489,Mexico,MX,Chiapas,minor,,
Acajete,19.586462,-97.009953,Mexico,MX,Veracruz,minor,,
Cuerámaro,20.625459,-101.67242,Mexico,MX,Guanajuato,minor,,
Ixhuatlán del Café,19.051178,-96.983906,Mexico,MX,Veracruz,minor,,
Tonaya,19.786343,-103.971218,Mexico,MX,Jalisco,minor,,
Santiago Apostol,16.80381,-96.72046,Mexico,MX,Oaxaca,minor,,
El Espinal,16.48525,-95.03995,Mexico,MX,Oaxaca,minor,,
San Martín Huamelulpam,17.396113,-97.599135,Mexico,MX,Oaxaca,minor,,
San Martín de los Canseco,16.656547,-96.727772,Mexico,MX,Oaxaca,minor,,
Villa Comaltitlán,15.213973,-92.576592,Mexico,MX,Chiapas,minor,,
Gómez Farías,19.793629,-103.476509,Mexico,MX,Jalisco,minor,,
Cárdenas,18.000868,-93.374534,Mexico,MX,Tabasco,minor,,
Marín,25.879464,-100.030275,Mexico,MX,Nuevo León,minor,,
Tlaltizapán,18.686302,-99.118682,Mexico,MX,Morelos,minor,,
Baca,21.108739,-89.398655,Mexico,MX,Yucatán,minor,,
Huiloapan,18.817582,-97.151493,Mexico,MX,Veracruz,minor,,
Arcelia,18.318471,-100.281481,Mexico,MX,Guerrero,minor,,
Espinal,20.243236,-97.407242,Mexico,MX,Puebla,minor,,
La Unión,17.985606,-101.806554,Mexico,MX,Guerrero,minor,,
Santo Domingo Huehuetlán,18.739401,-98.164375,Mexico,MX,Puebla,minor,,
Quintana Roo,20.869456,-88.631529,Mexico,MX,Yucatán,minor,,
Tuzantla,19.207928,-100.57288,Mexico,MX,Michoacán de Ocampo,minor,,
Metepec,19.25934,-99.601747,Mexico,MX,Morelos,minor,,
Metepec,20.237616,-98.321218,Mexico,MX,Hidalgo,minor,,
Santiago Yolomécatl,17.472366,-97.569805,Mexico,MX,Oaxaca,minor,,
Sotuta,20.59678,-89.008152,Mexico,MX,Yucatán,minor,,
San Bernardo Mixtepec,16.825787,-96.899105,Mexico,MX,Oaxaca,minor,,
Ayapango,19.127465,-98.802802,Mexico,MX,México,minor,,
Ciudad Ayala,18.769059,-98.989233,Mexico,MX,Morelos,minor,,
Zapotitlán Palmas,17.889647,-97.818488,Mexico,MX,Oaxaca,minor,,
Zoquiopan,20.008981,-97.596057,Mexico,MX,Puebla,minor,,
San Melchor Betaza,17.252665,-96.152836,Mexico,MX,Oaxaca,minor,,
San José Ayuquila,17.942207,-97.96861,Mexico,MX,Oaxaca,minor,,
Ramos Arizpe,25.539279,-100.947422,Mexico,MX,Coahuila de Zaragoza,minor,,
Cuauhtémoc,19.32861,-103.602844,Mexico,MX,Colima,minor,,
Colonia Manuel Gonzalez,19.114951,-96.859392,Mexico,MX,Veracruz,minor,,
Angamacutiro de la Unión,20.149976,-101.711135,Mexico,MX,Michoacán de Ocampo,minor,,
Chenalhó,16.893671,-92.626509,Mexico,MX,Chiapas,minor,,
Pinal de Amoles,21.134481,-99.625903,Mexico,MX,Querétaro,minor,,
Santo Tomás Ocotepec,17.144541,-97.76328,Mexico,MX,Oaxaca,minor,,
Huaquechula,18.771165,-98.544596,Mexico,MX,Puebla,minor,,
Teloloapan,18.367396,-99.867761,Mexico,MX,Guerrero,minor,,
Chigmecatitlán,18.646336,-98.072028,Mexico,MX,Puebla,minor,,
Tlalpujahua de Rayón,19.805229,-100.17409,Mexico,MX,México,minor,,
Rojas de Cuauhtémoc,17.005866,-96.61919,Mexico,MX,Oaxaca,minor,,
Jala,21.10484,-104.437636,Mexico,MX,Nayarit,minor,,
San Miguel Coatlán,16.197013,-96.694576,Mexico,MX,Oaxaca,minor,,
Chapultepec,19.202157,-99.561759,Mexico,MX,Morelos,minor,,
Juchitlán,20.085569,-104.098666,Mexico,MX,Jalisco,minor,,
San Felipe del Progreso,19.714402,-99.951971,Mexico,MX,México,minor,,
Calimaya de Díaz González,19.163243,-99.618102,Mexico,MX,Morelos,minor,,
Calihualá,17.531339,-98.277921,Mexico,MX,Oaxaca,minor,,
Zitlaltepec,19.2052,-97.908021,Mexico,MX,Tlaxcala,minor,,
Huamantla,19.314512,-97.925197,Mexico,MX,Tlaxcala,minor,,
San Pedro Yólox,17.589067,-96.552345,Mexico,MX,Oaxaca,minor,,
Jonotla,20.030324,-97.575298,Mexico,MX,Puebla,minor,,
Jonuta,18.089841,-92.138071,Mexico,MX,Tabasco,minor,,
Joquicingo de León Guzmán,19.05032,-99.533754,Mexico,MX,Morelos,minor,,
San Pedro Coxcaltepec,17.499718,-97.137949,Mexico,MX,Oaxaca,minor,,
Magdalena Zahuatlán,17.389775,-97.227467,Mexico,MX,Oaxaca,minor,,
Cotija de la Paz,19.809221,-102.701983,Mexico,MX,México,minor,,
Trinidad Zaachila,16.921351,-96.763842,Mexico,MX,Oaxaca,minor,,
Seyé,20.83568,-89.371738,Mexico,MX,Yucatán,minor,,
Tonatico,18.80562,-99.670124,Mexico,MX,México,minor,,
China,25.699967,-99.234543,Mexico,MX,Nuevo León,minor,,
Santiago Camotlán,17.445411,-96.185093,Mexico,MX,Oaxaca,minor,,
Tenango del Aire,19.156134,-98.858902,Mexico,MX,México,minor,,
Soltepec,19.121836,-97.70907,Mexico,MX,Puebla,minor,,
San Salvador el Verde,19.270023,-98.516482,Mexico,MX,Puebla,minor,,
Huixcolotla,18.920734,-97.77166,Mexico,MX,Puebla,minor,,
San José de Gracia,19.989664,-103.021981,Mexico,MX,Michoacán de Ocampo,minor,,
La Piedad,20.342392,-102.030504,Mexico,MX,Michoacán de Ocampo,minor,,
Tenejapa,16.818779,-92.50646,Mexico,MX,Chiapas,minor,,
Luis Moya,22.434065,-102.248973,Mexico,MX,Zacatecas,minor,,
General Zaragoza,23.973188,-99.772329,Mexico,MX,Nuevo León,minor,,
Acambay,19.955224,-99.84428,Mexico,MX,México,minor,,
Las Vigas de Ramírez,19.637223,-97.098211,Mexico,MX,Veracruz,minor,,
Apoala,17.648451,-97.136077,Mexico,MX,Oaxaca,minor,,
San Juan Epatlán,18.642724,-98.3725,Mexico,MX,Puebla,minor,,
San Juan Guelavía,16.955072,-96.543589,Mexico,MX,Oaxaca,minor,,
Río Grande,23.826467,-103.03034,Mexico,MX,Zacatecas,minor,,
Misantla,19.929915,-96.851937,Mexico,MX,Veracruz,minor,,
Macuspana,17.76052,-92.595387,Mexico,MX,Tabasco,minor,,
Tilapa,18.597174,-98.551558,Mexico,MX,Puebla,minor,,
Yucuyachi,17.608583,-98.196747,Mexico,MX,Oaxaca,minor,,
San Pedro Mártir Yucuxaco,17.432454,-97.611001,Mexico,MX,Oaxaca,minor,,
Saltillo,19.296444,-97.296613,Mexico,MX,Puebla,minor,,
Tlanalapa,19.81868,-98.60396,Mexico,MX,Hidalgo,minor,,
Tulcingo de Valle,18.043698,-98.440744,Mexico,MX,Puebla,minor,,
Santo Domingo Tepuxtepec,16.955844,-96.058228,Mexico,MX,Oaxaca,minor,,
Xagacía,17.154361,-96.267528,Mexico,MX,Oaxaca,minor,,
Santo Domingo Tlatayapam,17.407782,-97.345808,Mexico,MX,Oaxaca,minor,,
Pilcaya,18.746911,-99.675013,Mexico,MX,Guerrero,minor,,
San Juan Ihualtepec,17.740228,-98.288897,Mexico,MX,Oaxaca,minor,,
Chamula,16.787569,-92.689931,Mexico,MX,Chiapas,minor,,
Pátzcuaro,19.515938,-101.608867,Mexico,MX,Michoacán de Ocampo,minor,,
Panotla,19.31619,-98.27013,Mexico,MX,Tlaxcala,minor,,
San Pedro Huamelula,16.02697,-95.66735,Mexico,MX,Oaxaca,minor,,
Tlayacapan,18.95792,-98.982213,Mexico,MX,Morelos,minor,,
Nativitas,17.661602,-97.33566,Mexico,MX,Oaxaca,minor,,
Santa María Nduayaco,17.409962,-97.493209,Mexico,MX,Oaxaca,minor,,
Nopaltepec,19.778294,-98.710457,Mexico,MX,Morelos,minor,,
Soyaló,16.891301,-92.924334,Mexico,MX,Chiapas,minor,,
Ixtapa,16.8032,-92.905321,Mexico,MX,Chiapas,minor,,
Axutla,18.189377,-98.389348,Mexico,MX,Puebla,minor,,
Ayahualulco,19.35113,-97.14874,Mexico,MX,Puebla,minor,,
Villa Hidalgo,21.67616,-102.58803,Mexico,MX,Jalisco,minor,,
Temascalcingo de José María Velazco,19.916349,-100.003688,Mexico,MX,México,minor,,
Temascaltepec de González,19.04409,-100.042359,Mexico,MX,México,minor,,
Tetela de Ocampo,19.817696,-97.806909,Mexico,MX,Puebla,minor,,
Tizayuca,19.83721,-98.976072,Mexico,MX,Morelos,minor,,
El Higo,21.767076,-98.451856,Mexico,MX,Veracruz,minor,,
Santiago Tíanguistenco,19.180243,-99.466444,Mexico,MX,México,minor,,
San Juan Yatzona,17.401838,-96.168777,Mexico,MX,Oaxaca,minor,,
Tepalcatepec,19.18666,-102.8493,Mexico,MX,Michoacán de Ocampo,minor,,
Susupuato de Guerrero,19.215055,-100.407977,Mexico,MX,Michoacán de Ocampo,minor,,
Constancia del Rosario,17.0382,-97.941251,Mexico,MX,Oaxaca,minor,,
Ayutla de los Libres,16.963758,-99.096161,Mexico,MX,Guerrero,minor,,
Agua Dulce,18.139088,-94.145269,Mexico,MX,Veracruz,minor,,
Allende,25.276728,-100.014419,Mexico,MX,Nuevo León,minor,,
Chanal,16.652768,-92.259815,Mexico,MX,Chiapas,minor,,
Sayula,19.882251,-103.600275,Mexico,MX,Jalisco,minor,,
Acuamanala,19.223814,-98.198538,Mexico,MX,Tlaxcala,minor,,
Jalacingo,19.803325,-97.3083,Mexico,MX,Puebla,minor,,
San Antonino Castillo Velasco,16.801426,-96.682835,Mexico,MX,Oaxaca,minor,,
Higueras,25.960067,-100.015204,Mexico,MX,Nuevo León,minor,,
Cuitzeo del Porvenir,19.970251,-101.142904,Mexico,MX,Michoacán de Ocampo,minor,,
Sultepec de Pedro Ascencio de Alquisiras,18.858552,-99.965876,Mexico,MX,México,minor,,
San Miguel Aloápam,17.41136,-96.69154,Mexico,MX,Oaxaca,minor,,
Aporo,19.670213,-100.410678,Mexico,MX,Michoacán de Ocampo,minor,,
San Juan Colorado,16.460663,-97.954313,Mexico,MX,Oaxaca,minor,,
Santa Lucía Ocotlán,16.738342,-96.679621,Mexico,MX,Oaxaca,minor,,
San José Lachiguirí,16.377836,-96.335886,Mexico,MX,Oaxaca,minor,,
Miahuatlán,18.291635,-97.287886,Mexico,MX,Puebla,minor,,
Romita,20.871269,-101.516829,Mexico,MX,Guanajuato,minor,,
San Bartolo Morelos,19.786431,-99.66879,Mexico,MX,México,minor,,
Metlatónoc,17.194817,-98.40706,Mexico,MX,Guerrero,minor,,
Calkiní,20.369047,-90.051187,Mexico,MX,Campeche,minor,,
Ayutla,17.027564,-96.076321,Mexico,MX,Oaxaca,minor,,
San Pedro y San Pablo Tequistepec,18.061062,-97.718163,Mexico,MX,Puebla,minor,,
Santa Cruz,31.233617,-110.596181,Mexico,MX,Sonora,minor,,
Nealtican,19.049904,-98.427204,Mexico,MX,Puebla,minor,,
Tenango de Doria,20.338284,-98.228054,Mexico,MX,Hidalgo,minor,,
Hunucmá,21.017235,-89.875506,Mexico,MX,Yucatán,minor,,
Gran Morelos,28.249196,-106.510622,Mexico,MX,Chihuahua,minor,,
Cosío,22.366249,-102.300081,Mexico,MX,Aguascalientes,minor,,
San Pablo Huitzo,17.27708,-96.88661,Mexico,MX,Oaxaca,minor,,
San Pablo Macuiltianguis,17.53348,-96.55212,Mexico,MX,Oaxaca,minor,,
San Pablo Huixtepec,16.81948,-96.78128,Mexico,MX,Oaxaca,minor,,
Dos Ríos,19.481667,-96.7977,Mexico,MX,Veracruz,minor,,
San Blas,21.54333,-105.285576,Mexico,MX,Nayarit,minor,,
Tanetze de Zaragoza,17.37616,-96.30111,Mexico,MX,Oaxaca,minor,,
Acuítzio del Canje,19.495853,-101.333205,Mexico,MX,Michoacán de Ocampo,minor,,
Santa Inés del Monte,16.92387,-96.86238,Mexico,MX,Oaxaca,minor,,
Motozintla,15.366944,-92.246053,Mexico,MX,Chiapas,minor,,
Santa María Xadani,16.36198,-95.01826,Mexico,MX,Oaxaca,minor,,
Santa Isabel,28.341657,-106.372199,Mexico,MX,Chihuahua,minor,,
General Zuazua,25.894908,-100.107998,Mexico,MX,Nuevo León,minor,,
Villa de Arriaga,21.909168,-101.382227,Mexico,MX,San Luis Potosí,minor,,
Honey,20.238845,-98.212529,Mexico,MX,Hidalgo,minor,,
Palenque,17.509532,-91.982479,Mexico,MX,Chiapas,minor,,
Erongarícuaro,19.588812,-101.721097,Mexico,MX,Michoacán de Ocampo,minor,,
Totoltepec de Guerrero,18.2256,-97.85511,Mexico,MX,Puebla,minor,,
San Bartolomé Loxícha,15.969813,-96.709573,Mexico,MX,Oaxaca,minor,,
Soyaltepec,17.591738,-97.308188,Mexico,MX,Oaxaca,minor,,
Encarnación de Díaz,21.527054,-102.240132,Mexico,MX,Jalisco,minor,,
Pastor Ortíz,20.305524,-101.595885,Mexico,MX,México,minor,,
San Juan Diuxi,17.285971,-97.370045,Mexico,MX,Oaxaca,minor,,
Papalotla,19.563408,-98.856809,Mexico,MX,México,minor,,
San Agustín Amatengo,16.510857,-96.789192,Mexico,MX,Oaxaca,minor,,
Pesquería,25.785434,-100.05098,Mexico,MX,Nuevo León,minor,,
Ario de Rosales,19.208997,-101.70743,Mexico,MX,Michoacán de Ocampo,minor,,
Pajacuarán,20.119089,-102.566232,Mexico,MX,Michoacán de Ocampo,minor,,
Nieves,23.996087,-103.020126,Mexico,MX,Zacatecas,minor,,
Tierra Colorada,17.16571,-99.527909,Mexico,MX,Guerrero,minor,,
Lagunillas,19.562706,-101.415823,Mexico,MX,Michoacán de Ocampo,minor,,
Aconchi,29.826276,-110.224924,Mexico,MX,Sonora,minor,,
Mariano Escobedo,18.914719,-97.130691,Mexico,MX,Veracruz,minor,,
Santa Cruz Atizapán,19.176918,-99.488525,Mexico,MX,México,minor,,
Tepoztlán,18.98622,-99.100508,Mexico,MX,Morelos,minor,,
San Salvador,20.285833,-99.014565,Mexico,MX,Hidalgo,minor,,
Libres,19.465744,-97.687369,Mexico,MX,Puebla,minor,,
San Juan Achiutla,17.350195,-97.508041,Mexico,MX,Oaxaca,minor,,
San Juan Atzompa,18.744965,-98.024513,Mexico,MX,Puebla,minor,,
San Ciro de Acosta,21.650717,-99.819156,Mexico,MX,San Luis Potosí,minor,,
Santa Catarina Tayata,17.347154,-97.558218,Mexico,MX,Oaxaca,minor,,
Santa Catarina Tlaltempan,18.61541,-98.080802,Mexico,MX,Puebla,minor,,
Pluma Hidalgo,15.927112,-96.418518,Mexico,MX,Oaxaca,minor,,
Zinacantán,16.760198,-92.722569,Mexico,MX,Chiapas,minor,,
Santiago Laxopa,17.218419,-96.310988,Mexico,MX,Oaxaca,minor,,
Quiroga,19.665565,-101.522873,Mexico,MX,Michoacán de Ocampo,minor,,
Santa María Guelacé,17.00119,-96.603465,Mexico,MX,Oaxaca,minor,,
El Guayabito,19.949561,-102.444138,Mexico,MX,México,minor,,
Palo Alto,21.918011,-101.964533,Mexico,MX,Aguascalientes,minor,,
San Bernardino Contla,19.32932,-98.1664,Mexico,MX,Tlaxcala,minor,,
Colipa,19.92323,-96.727133,Mexico,MX,Veracruz,minor,,
La Concordia,16.11774,-92.69018,Mexico,MX,Chiapas,minor,,
Zautla,19.714752,-97.671463,Mexico,MX,Puebla,minor,,
Santiago Zoochila,17.220593,-96.24212,Mexico,MX,Oaxaca,minor,,
Tlaxco,20.423453,-98.029171,Mexico,MX,Puebla,minor,,
Tlaxco,19.614422,-98.119972,Mexico,MX,Tlaxcala,minor,,
Chimalhuacán,19.415958,-98.955314,Mexico,MX,México,minor,,
Santa María Colotepec,15.897367,-96.939507,Mexico,MX,Oaxaca,minor,,
San Miguel Achiutla,17.308999,-97.483917,Mexico,MX,Oaxaca,minor,,
Nanacamilpa,19.493387,-98.536647,Mexico,MX,Tlaxcala,minor,,
Ixtapan del Oro,19.263035,-100.26459,Mexico,MX,México,minor,,
Ixtapaluca,19.315557,-98.882841,Mexico,MX,México,minor,,
Santo Tomás de los Plátanos,19.181788,-100.260263,Mexico,MX,México,minor,,
Villa Guerrero,21.983411,-103.595057,Mexico,MX,Jalisco,minor,,
Villa Guerrero,18.962111,-99.640608,Mexico,MX,México,minor,,
Villa Zaragoza,22.037158,-100.730879,Mexico,MX,San Luis Potosí,minor,,
Tetecala,18.730093,-99.400213,Mexico,MX,Morelos,minor,,
Sinaloa de Leyva,25.821895,-108.222611,Mexico,MX,Sinaloa,minor,,
Chignahuapan,19.83866,-98.03171,Mexico,MX,Puebla,minor,,
Frontera Hidalgo,14.777436,-92.177406,Mexico,MX,Chiapas,minor,,
Altamirano,16.734572,-92.038426,Mexico,MX,Chiapas,minor,,
Genaro Codina,22.487552,-102.457544,Mexico,MX,Zacatecas,minor,,
El Oro,26.863203,-105.848379,Mexico,MX,Chihuahua,minor,,
Turicato,19.054019,-101.418995,Mexico,MX,Michoacán de Ocampo,minor,,
Cuautlancingo,19.089954,-98.273191,Mexico,MX,Puebla,minor,,
Cuautla,18.810602,-98.935251,Mexico,MX,Morelos,minor,,
Contepec,19.954322,-100.163846,Mexico,MX,México,minor,,
San Miguel Tenango,16.26659,-95.59532,Mexico,MX,Oaxaca,minor,,
San Miguel Tlacamama,16.415468,-98.063007,Mexico,MX,Oaxaca,minor,,
San Miguel Tilquiapam,16.782183,-96.581653,Mexico,MX,Oaxaca,minor,,
Iguala de la Independencia,18.34536,-99.541305,Mexico,MX,Guerrero,minor,,
San Joaquín,20.915616,-99.565196,Mexico,MX,Querétaro,minor,,
Moctezuma,22.747871,-101.082194,Mexico,MX,San Luis Potosí,minor,,
Nacajuca,18.169714,-93.018431,Mexico,MX,Tabasco,minor,,
Mixtlán,20.439,-104.408668,Mexico,MX,Jalisco,minor,,
Ojuelos de Jalisco,21.866136,-101.592689,Mexico,MX,Jalisco,minor,,
Zumpango de Ocampo,19.793499,-99.097998,Mexico,MX,Morelos,minor,,
General Bravo,25.792393,-99.181472,Mexico,MX,Nuevo León,minor,,
Ucú,21.031345,-89.744659,Mexico,MX,Yucatán,minor,,
Telchac Puerto,21.341212,-89.263333,Mexico,MX,Yucatán,minor,,
San Bartolomé Quialana,16.903024,-96.501688,Mexico,MX,Oaxaca,minor,,
Santa Ana Zegache,16.837064,-96.729479,Mexico,MX,Oaxaca,minor,,
San Blas Atempa,16.331028,-95.225595,Mexico,MX,Oaxaca,minor,,
Jungapeo de Juárez,19.459154,-100.494831,Mexico,MX,Michoacán de Ocampo,minor,,
Ciénega de Zimatlán,16.89343,-96.76756,Mexico,MX,Oaxaca,minor,,
San José Estancia Grande,16.365452,-98.250925,Mexico,MX,Oaxaca,minor,,
Sucilá,21.1565,-88.314047,Mexico,MX,Yucatán,minor,,
Taxco de Alarcón,18.554622,-99.60592,Mexico,MX,Guerrero,minor,,
Temixco,18.852543,-99.225372,Mexico,MX,Morelos,minor,,
Charcas,23.129431,-101.113457,Mexico,MX,San Luis Potosí,minor,,
Vista Hermosa de Negrete,20.271686,-102.474877,Mexico,MX,Michoacán de Ocampo,minor,,
Nuevo Urecho,19.166018,-101.868158,Mexico,MX,Michoacán de Ocampo,minor,,
Ciénega de Flores,25.954669,-100.166951,Mexico,MX,Nuevo León,minor,,
Guerrero,28.309915,-100.380484,Mexico,MX,Coahuila de Zaragoza,minor,,
Ozumba,19.037826,-98.794961,Mexico,MX,México,minor,,
Concepción de Buenos Aires,19.97822,-103.259807,Mexico,MX,Jalisco,minor,,
Ejutla de Crespo,16.566234,-96.731228,Mexico,MX,Oaxaca,minor,,
San Pablo Villa de Mitla,16.922835,-96.359902,Mexico,MX,Oaxaca,minor,,
Yaganiza,17.144952,-96.229596,Mexico,MX,Oaxaca,minor,,
Sergio Butrón Casas,18.513896,-88.568828,Mexico,MX,Quintana Roo,minor,,
Maxcanú,20.584556,-90.000998,Mexico,MX,Yucatán,minor,,
Larráinzar,16.883923,-92.71329,Mexico,MX,Chiapas,minor,,
Xayacatlán de Bravo,18.237116,-97.97524,Mexico,MX,Puebla,minor,,
Totontepec Villa de Morelos,17.256785,-96.027856,Mexico,MX,Oaxaca,minor,,
San Bartolo Tutotepec,20.398409,-98.200798,Mexico,MX,Hidalgo,minor,,
San Bartolo Yautepec,16.429347,-95.974381,Mexico,MX,Oaxaca,minor,,
Zinacatepec,18.335162,-97.246212,Mexico,MX,Puebla,minor,,
Xalisco,21.451,-104.8983,Mexico,MX,Nayarit,minor,,
San Andrés Yaá,17.292895,-96.153836,Mexico,MX,Oaxaca,minor,,
El Oro de Hidalgo,19.802722,-100.130815,Mexico,MX,Morelos,minor,,
Tenampulco,20.17042,-97.404956,Mexico,MX,Puebla,minor,,
Petlalcingo,18.084626,-97.917496,Mexico,MX,Puebla,minor,,
Cajonos,17.168005,-96.261742,Mexico,MX,Oaxaca,minor,,
San Pedro Atoyac,16.490048,-97.985848,Mexico,MX,Oaxaca,minor,,
Apulco,21.388242,-102.68219,Mexico,MX,Zacatecas,minor,,
San Pedro Apóstol,16.736953,-96.724737,Mexico,MX,Oaxaca,minor,,
Ciudad de Atlixco,18.903723,-98.43922,Mexico,MX,Puebla,minor,,
Coxcatlán,18.267086,-97.150781,Mexico,MX,Puebla,minor,,
Tuxtla Chico,14.939449,-92.167302,Mexico,MX,Chiapas,minor,,
San Juan Xiutetelco,19.795625,-97.32578,Mexico,MX,Puebla,minor,,
Tierra Nueva,21.669039,-100.572867,Mexico,MX,San Luis Potosí,minor,,
Aguililla,18.737418,-102.789337,Mexico,MX,Michoacán de Ocampo,minor,,
Acolman,19.638707,-98.910407,Mexico,MX,México,minor,,
Atoyac de Álvarez,17.209758,-100.432605,Mexico,MX,Guerrero,minor,,
Atoyatempan,18.819253,-97.913904,Mexico,MX,Puebla,minor,,
Tecamachalco,18.883522,-97.733439,Mexico,MX,Puebla,minor,,
Tecali,18.900596,-97.970636,Mexico,MX,Puebla,minor,,
Mixistlán,17.146524,-96.112885,Mexico,MX,Oaxaca,minor,,
Caxhuacán,20.06359,-97.606881,Mexico,MX,Puebla,minor,,
Chalco,19.261738,-98.897746,Mexico,MX,México,minor,,
Huatusco de Chicuellar,19.14876,-96.967602,Mexico,MX,Veracruz,minor,,
Huauchinango,20.173759,-98.054909,Mexico,MX,Puebla,minor,,
Huatlatlauca,18.681475,-98.050415,Mexico,MX,Puebla,minor,,
San Miguel Huautla,17.745382,-97.137116,Mexico,MX,Oaxaca,minor,,
Santa María Tepantlali,16.99663,-96.00883,Mexico,MX,Oaxaca,minor,,
San Matias Tlalancaleca,19.325362,-98.498635,Mexico,MX,Puebla,minor,,
San Juan Teitipac,16.927992,-96.606195,Mexico,MX,Oaxaca,minor,,
Zináparo,20.172521,-101.997709,Mexico,MX,Michoacán de Ocampo,minor,,
Zinapécuaro,19.860065,-100.828567,Mexico,MX,Michoacán de Ocampo,minor,,
Meoqui,28.272263,-105.480464,Mexico,MX,Chihuahua,minor,,
Quiriego,27.519872,-109.252333,Mexico,MX,Sonora,minor,,
Villa Jiménez,19.924005,-101.746266,Mexico,MX,Michoacán de Ocampo,minor,,
Tepetitla,19.265305,-98.376448,Mexico,MX,Puebla,minor,,
San Salvador Tzompantepec,19.372199,-98.087014,Mexico,MX,Tlaxcala,minor,,
Tzitzio,19.585825,-100.924725,Mexico,MX,Michoacán de Ocampo,minor,,
San Pedro Mixtepec,16.270604,-96.284059,Mexico,MX,Oaxaca,minor,,
San Pedro Mártir Quiechapa,16.415157,-96.244512,Mexico,MX,Oaxaca,minor,,
San Pedro Mixtepec,15.98211,-97.079844,Mexico,MX,Oaxaca,minor,,
Soledad de Graciano Sánchez,22.189124,-100.937918,Mexico,MX,San Luis Potosí,minor,,
Ayoquezco de Aldama,16.683701,-96.842871,Mexico,MX,Oaxaca,minor,,
Santa María Chachoápam,17.525699,-97.284224,Mexico,MX,Oaxaca,minor,,
Santa María Camotlán,17.896875,-97.692004,Mexico,MX,Oaxaca,minor,,
Comonfort,20.722781,-100.759463,Mexico,MX,Guanajuato,minor,,
Amecameca de Juárez,19.124402,-98.766027,Mexico,MX,México,minor,,
Ciudad Fernández,21.940454,-100.011526,Mexico,MX,San Luis Potosí,minor,,
Ciudad Hidalgo,14.681483,-92.152173,Mexico,MX,Chiapas,minor,,
Santa María Cortijo,16.451507,-98.285493,Mexico,MX,Oaxaca,minor,,
Rosales,28.18753,-105.55717,Mexico,MX,Chihuahua,minor,,
Soledad Atzompa,18.754993,-97.150395,Mexico,MX,Veracruz,minor,,
Atzala,18.54494,-98.554418,Mexico,MX,Puebla,minor,,
Atzacan,18.907237,-97.083073,Mexico,MX,Veracruz,minor,,
Tlalnepantla,19.008846,-98.99613,Mexico,MX,Morelos,minor,,
Villamar,20.020404,-102.596555,Mexico,MX,Michoacán de Ocampo,minor,,
Zapotlán de Juárez,19.977089,-98.864196,Mexico,MX,Hidalgo,minor,,
Ahuehuetitlán,17.6713,-98.320236,Mexico,MX,Oaxaca,minor,,
San Juan Cancuc,16.892724,-92.370064,Mexico,MX,Chiapas,minor,,
Amanalco de Becerra,19.25374,-100.0198,Mexico,MX,México,minor,,
Villa Talea de Castro,17.359833,-96.249528,Mexico,MX,Oaxaca,minor,,
Epazoyucan,20.018015,-98.636233,Mexico,MX,Hidalgo,minor,,
Santa Cruz Papalutla,16.956274,-96.583103,Mexico,MX,Oaxaca,minor,,
Buenavista de Cuéllar,18.459581,-99.408679,Mexico,MX,Guerrero,minor,,
Tlaltetela,19.31421,-96.90105,Mexico,MX,Veracruz,minor,,
Cuautepec de Hinojosa,20.035568,-98.310154,Mexico,MX,Hidalgo,minor,,
Cuautepec,16.750042,-99.002404,Mexico,MX,Guerrero,minor,,
San Julián,21.010349,-102.179666,Mexico,MX,Jalisco,minor,,
Santa María Quiegolani,16.277054,-96.052686,Mexico,MX,Oaxaca,minor,,
Santa Catalina Quieri,16.321412,-96.266184,Mexico,MX,Oaxaca,minor,,
Puente de Ixtla,18.617215,-99.322369,Mexico,MX,Morelos,minor,,
Mococha,21.106209,-89.452171,Mexico,MX,Yucatán,minor,,
Españita,19.462857,-98.424338,Mexico,MX,Tlaxcala,minor,,
Alpoyeca,17.670411,-98.509735,Mexico,MX,Guerrero,minor,,
La Huacana,18.963117,-101.807198,Mexico,MX,Michoacán de Ocampo,minor,,
Candelaria Loxicha,15.926382,-96.492678,Mexico,MX,Oaxaca,minor,,
Oluta,17.929724,-94.896618,Mexico,MX,Veracruz,minor,,
Santa María Yavesía,17.235309,-96.430617,Mexico,MX,Oaxaca,minor,,
Atzitzintla,18.899149,-97.324405,Mexico,MX,Puebla,minor,,
Totoltepec,18.652552,-98.347056,Mexico,MX,Puebla,minor,,
San Martín Xaltocan,19.421512,-98.21746,Mexico,MX,Tlaxcala,minor,,
Zumpango del Río,17.648077,-99.524479,Mexico,MX,Guerrero,minor,,
Villa Díaz Ordaz,16.995782,-96.432308,Mexico,MX,Oaxaca,minor,,
Coaxomulco,19.352638,-98.096704,Mexico,MX,Tlaxcala,minor,,
San Antonino Monteverde,17.533975,-97.721186,Mexico,MX,Oaxaca,minor,,
San Francisco Telixtlahuaca,17.29684,-96.90529,Mexico,MX,Oaxaca,minor,,
San Francisco Sola,16.515842,-96.974878,Mexico,MX,Oaxaca,minor,,
Los Ramones,25.697162,-99.625287,Mexico,MX,Nuevo León,minor,,
Altar,30.715382,-111.837034,Mexico,MX,Sonora,minor,,
Ixtacuixtla,19.32659,-98.378272,Mexico,MX,Puebla,minor,,
Temoaya,19.467474,-99.594073,Mexico,MX,Morelos,minor,,
Santiago Llano Grande,16.490603,-98.28847,Mexico,MX,Oaxaca,minor,,
Calotmul,21.020499,-88.177235,Mexico,MX,Yucatán,minor,,
Calpulalpan,19.588672,-98.569717,Mexico,MX,Hidalgo,minor,,
Nuevo San Juan Parangaricutiro,19.418565,-102.130874,Mexico,MX,Michoacán de Ocampo,minor,,
Cuapiaxtla de Madero,18.915436,-97.823817,Mexico,MX,Puebla,minor,,
Santiago Yogana,16.4613,-96.787858,Mexico,MX,Oaxaca,minor,,
Bustamante,23.435238,-99.758754,Mexico,MX,Tamaulipas,minor,,
Guadalupe,22.747527,-102.518737,Mexico,MX,Zacatecas,minor,,
Dzilam de Bravo,21.39194,-88.8941,Mexico,MX,Yucatán,minor,,
Dzitás,20.840891,-88.52908,Mexico,MX,Yucatán,minor,,
Dzilam González,21.280981,-88.929575,Mexico,MX,Yucatán,minor,,
Tixtla de Guerrero,17.568632,-99.397877,Mexico,MX,Guerrero,minor,,
Muñoz Arenas de Domingo,19.47458,-98.20963,Mexico,MX,Tlaxcala,minor,,
Zumpahuacán,18.837227,-99.580796,Mexico,MX,México,minor,,
Senguio,19.734173,-100.353851,Mexico,MX,Michoacán de Ocampo,minor,,
Ahuatlán,18.572758,-98.256916,Mexico,MX,Puebla,minor,,
Ahuazotepec,20.045353,-98.163324,Mexico,MX,Hidalgo,minor,,
La Perla,18.92817,-97.13362,Mexico,MX,Veracruz,minor,,
Xaloztoc,19.40775,-98.046018,Mexico,MX,Tlaxcala,minor,,
San Bartolo Coyotepec,16.957868,-96.706429,Mexico,MX,Oaxaca,minor,,
Castillo de Teayo,20.749269,-97.630295,Mexico,MX,Veracruz,minor,,
Cerro de San Pedro,22.217798,-100.79961,Mexico,MX,San Luis Potosí,minor,,
Yauhquemehcan,19.406969,-98.182302,Mexico,MX,Tlaxcala,minor,,
San Dionisio Ocotepec,16.804572,-96.393343,Mexico,MX,Oaxaca,minor,,
Cenotillo,20.96621,-88.604383,Mexico,MX,Yucatán,minor,,
Magdalena Yodocono de Porfirio Díaz,17.384696,-97.3553,Mexico,MX,Oaxaca,minor,,
San Andrés Sinaxtla,17.469278,-97.282982,Mexico,MX,Oaxaca,minor,,
Tepetlapa,17.666014,-98.391884,Mexico,MX,Oaxaca,minor,,
San Andrés Tenejapan,18.789207,-97.093993,Mexico,MX,Veracruz,minor,,
San Andrés Timilpan,19.876099,-99.733752,Mexico,MX,México,minor,,
Coxquihui,20.18398,-97.585682,Mexico,MX,Puebla,minor,,
Pahuatlán de Valle,20.277995,-98.149974,Mexico,MX,Puebla,minor,,
Celestún,20.859728,-90.399015,Mexico,MX,Yucatán,minor,,
Timucuy,20.810226,-89.51383,Mexico,MX,Yucatán,minor,,
San Juan Bautista Jayacatlán,17.42443,-96.82309,Mexico,MX,Oaxaca,minor,,
Magdalena,20.907413,-103.977997,Mexico,MX,Jalisco,minor,,
Parras de la Fuente,25.441853,-102.17808,Mexico,MX,Coahuila de Zaragoza,minor,,
Santa María Zoquitlán,16.558855,-96.353254,Mexico,MX,Oaxaca,minor,,
San Miguel Tecomatlán,17.394535,-97.26845,Mexico,MX,Oaxaca,minor,,
Zamora Pico de Oro,16.331602,-90.765737,Mexico,MX,Chiapas,minor,,
Conkal,21.073649,-89.519955,Mexico,MX,Yucatán,minor,,
Zongozotla,19.979302,-97.727508,Mexico,MX,Puebla,minor,,
Salinas Victoria,25.963292,-100.290915,Mexico,MX,Nuevo León,minor,,
Quitupán,19.927279,-102.872713,Mexico,MX,México,minor,,
San Marcos Arteaga,17.722385,-97.860343,Mexico,MX,Oaxaca,minor,,
Santo Domingo Tonalá,17.673517,-97.965559,Mexico,MX,Oaxaca,minor,,
Tepetlaoxtoc,19.574373,-98.818353,Mexico,MX,México,minor,,
Panindícuaro,19.985176,-101.760957,Mexico,MX,Michoacán de Ocampo,minor,,
San Pedro Jicayán,16.451791,-98.014245,Mexico,MX,Oaxaca,minor,,
Santa María Apazco,17.634329,-97.100335,Mexico,MX,Oaxaca,minor,,
Heroica Ciudad de Tlaxiaco,17.269161,-97.680526,Mexico,MX,Oaxaca,minor,,
San Ildefonso Amatlán,16.333896,-96.491223,Mexico,MX,Oaxaca,minor,,
Ciudad Manuel Doblado,20.728883,-101.952262,Mexico,MX,Guanajuato,minor,,
Papalotla,19.167547,-98.210307,Mexico,MX,Tlaxcala,minor,,
Autlán de Navarro,19.768222,-104.366636,Mexico,MX,Jalisco,minor,,
Chicahua,17.636665,-97.194971,Mexico,MX,Oaxaca,minor,,
Santa María Temaxcalapa,17.38036,-96.161371,Mexico,MX,Oaxaca,minor,,
Santiago Textitlán,16.692637,-97.258843,Mexico,MX,Oaxaca,minor,,
Tepetlixpa,19.028929,-98.821294,Mexico,MX,México,minor,,
El Porvenir de Velasco Suárez,15.456949,-92.279873,Mexico,MX,Chiapas,minor,,
Jocotitlán,19.709912,-99.788672,Mexico,MX,México,minor,,
Queréndaro,19.809535,-100.8906,Mexico,MX,Michoacán de Ocampo,minor,,
Ixcamilpa,18.027686,-98.69643,Mexico,MX,Guerrero,minor,,
Amozoc,19.044529,-98.044682,Mexico,MX,Puebla,minor,,
Chichihualco,17.659023,-99.676236,Mexico,MX,Guerrero,minor,,
Almoloya de Alquisiras,18.86564,-99.894522,Mexico,MX,México,minor,,
Terrenate,19.476656,-97.920202,Mexico,MX,Tlaxcala,minor,,
Tetlatlahuca,19.232323,-98.295614,Mexico,MX,Tlaxcala,minor,,
Tlaltenango,19.171651,-98.340723,Mexico,MX,Puebla,minor,,
Putla Villa de Guerrero,17.026304,-97.928542,Mexico,MX,Oaxaca,minor,,
San Martin Texmelucan de Labastida,19.284306,-98.438845,Mexico,MX,Puebla,minor,,
Zozocolco de Hidalgo,20.140477,-97.575672,Mexico,MX,Puebla,minor,,
Las Minas,19.690907,-97.145971,Mexico,MX,Veracruz,minor,,
Totutla,19.211695,-96.961176,Mexico,MX,Veracruz,minor,,
Ixtepec,20.024605,-97.646125,Mexico,MX,Puebla,minor,,
Santa Inés Yatzeche,16.80658,-96.75719,Mexico,MX,Oaxaca,minor,,
San Antonio Cañada,18.498087,-97.288639,Mexico,MX,Puebla,minor,,
Ixtlán de los Hervores,20.168948,-102.394797,Mexico,MX,Michoacán de Ocampo,minor,,
Mixtla,18.905024,-97.895545,Mexico,MX,Puebla,minor,,
Los Reyes Acaquilpan,19.363565,-98.977068,Mexico,MX,México,minor,,
Los Reyes de Juárez,18.94918,-97.803792,Mexico,MX,Puebla,minor,,
Tanhuato de Guerrero,20.285516,-102.331134,Mexico,MX,Michoacán de Ocampo,minor,,
Tepemaxalco,18.733988,-98.62925,Mexico,MX,Puebla,minor,,
Apizaco,19.41333,-98.14358,Mexico,MX,Tlaxcala,minor,,
Ciudad Apodaca,25.781945,-100.188387,Mexico,MX,Nuevo León,minor,,
Texcatitlán,17.712586,-97.066246,Mexico,MX,Oaxaca,minor,,
Mazapiltepec,19.119121,-97.7028,Mexico,MX,Puebla,minor,,
Yecapixtla,18.88114,-98.861197,Mexico,MX,Morelos,minor,,
Tepeyanco,19.245584,-98.234088,Mexico,MX,Tlaxcala,minor,,
Chicomuselo,15.744196,-92.283304,Mexico,MX,Chiapas,minor,,
San Juan Mixtepec,16.277095,-96.300572,Mexico,MX,Oaxaca,minor,,
San Juan Mixtepec,17.30539,-97.83158,Mexico,MX,Oaxaca,minor,,
Cosautlán de Carvajal,19.331962,-96.990299,Mexico,MX,Veracruz,minor,,
Yatzachi,17.225883,-96.221365,Mexico,MX,Oaxaca,minor,,
Yautepec de Zaragoza,18.88252,-99.064317,Mexico,MX,Morelos,minor,,
Teocelo,19.3856,-96.97371,Mexico,MX,Veracruz,minor,,
Villa de Guadalupe,23.373842,-100.757026,Mexico,MX,San Luis Potosí,minor,,
García,25.812015,-100.598736,Mexico,MX,Nuevo León,minor,,
San Sebastián Coatlán,16.202116,-96.826453,Mexico,MX,Oaxaca,minor,,
San Sebastián Abasolo,16.994321,-96.58701,Mexico,MX,Oaxaca,minor,,
Ocosingo,16.90639,-92.09374,Mexico,MX,Chiapas,minor,,
La Independencia,16.252626,-92.023708,Mexico,MX,Chiapas,minor,,
Chila,17.969617,-97.860723,Mexico,MX,Oaxaca,minor,,
Cosoltepec,18.142547,-97.790841,Mexico,MX,Puebla,minor,,
San Juan de los Lagos,21.248927,-102.33036,Mexico,MX,Jalisco,minor,,
Momax,21.922603,-103.313068,Mexico,MX,Zacatecas,minor,,
Tamazulapam,17.05485,-96.065336,Mexico,MX,Oaxaca,minor,,
San Andrés Huayápam,17.102639,-96.665561,Mexico,MX,Oaxaca,minor,,
Hueyotlipan,18.891482,-97.865747,Mexico,MX,Puebla,minor,,
Santo Tomás Jalieza,16.84469,-96.67063,Mexico,MX,Oaxaca,minor,,
Santa María Coyotepec,16.96663,-96.70513,Mexico,MX,Oaxaca,minor,,
Santa Ana Tlapacoyan,16.743403,-96.836876,Mexico,MX,Oaxaca,minor,,
Cocotitlán,19.233364,-98.865957,Mexico,MX,México,minor,,
Villa Donato Guerra,19.30836,-100.1425,Mexico,MX,México,minor,,
Asunción Nochixtlán,17.459165,-97.226048,Mexico,MX,Oaxaca,minor,,
Asunción Ocotlán,16.76195,-96.72137,Mexico,MX,Oaxaca,minor,,
Asunción Tlacolulita,16.299421,-95.726681,Mexico,MX,Oaxaca,minor,,
Tierra Blanca,21.100059,-100.159308,Mexico,MX,Guanajuato,minor,,
Maravatío de Ocampo,19.891131,-100.444427,Mexico,MX,Michoacán de Ocampo,minor,,
Acteopan,18.763885,-98.713655,Mexico,MX,Puebla,minor,,
Villa Atltzayanca de Hidalgo,19.431207,-97.79555,Mexico,MX,Tlaxcala,minor,,
Túxpam de Rodríguez Cano,20.957771,-97.408047,Mexico,MX,Veracruz,minor,,
Metapa,14.836238,-92.191863,Mexico,MX,Chiapas,minor,,
Chicoloapan,19.416865,-98.902022,Mexico,MX,México,minor,,
Silacayoápam,17.502973,-98.139664,Mexico,MX,Oaxaca,minor,,
Los Herreras,25.907969,-99.404789,Mexico,MX,Nuevo León,minor,,
Tequisquiapan,20.524468,-99.892282,Mexico,MX,Querétaro,minor,,
Magdalena Tequisistlán,16.39929,-95.60204,Mexico,MX,Oaxaca,minor,,
Magdalena Teitipac,16.903926,-96.558403,Mexico,MX,Oaxaca,minor,,
Santa María Rayón,19.148085,-99.57974,Mexico,MX,México,minor,,
Tlalixtac de Cabrera,17.071125,-96.647097,Mexico,MX,Oaxaca,minor,,
Tlalixtaquilla,17.576739,-98.367272,Mexico,MX,Guerrero,minor,,
Tlalmanalco de Velázquez,19.208072,-98.801385,Mexico,MX,México,minor,,
Lerma de Villada,19.288807,-99.51163,Mexico,MX,Morelos,minor,,
Huandacareo,19.991359,-101.276099,Mexico,MX,Michoacán de Ocampo,minor,,
Grajales,19.227963,-97.803071,Mexico,MX,Puebla,minor,,
Rafael Delgado,18.81014,-97.071723,Mexico,MX,Veracruz,minor,,
Ayotoxco de Guerrero,20.095894,-97.409606,Mexico,MX,Puebla,minor,,
Yalina,17.239691,-96.262326,Mexico,MX,Oaxaca,minor,,
Las Choapas,17.911773,-94.096457,Mexico,MX,Veracruz,minor,,
Zoogocho,17.240094,-96.242985,Mexico,MX,Oaxaca,minor,,
Tatatila,19.693199,-97.1116,Mexico,MX,Veracruz,minor,,
Peñamiller,21.05408,-99.81573,Mexico,MX,Querétaro,minor,,
Jáltipan de Morelos,17.965425,-94.713963,Mexico,MX,Veracruz,minor,,
San Agustín Atenango,17.611503,-98.01095,Mexico,MX,Oaxaca,minor,,
San Lorenzo,17.668667,-98.119859,Mexico,MX,Oaxaca,minor,,
Tamazola,17.670198,-98.220843,Mexico,MX,Oaxaca,minor,,
San Jorge Nuchita,17.656686,-98.10383,Mexico,MX,Oaxaca,minor,,
Tepetzintla,19.967196,-97.841427,Mexico,MX,Puebla,minor,,
San Pedro Piedra Gorda,22.44753,-102.348754,Mexico,MX,Zacatecas,minor,,
San Pedro Quiatoni,16.782952,-96.030854,Mexico,MX,Oaxaca,minor,,
Ciudad Mendoza,18.806453,-97.178698,Mexico,MX,Veracruz,minor,,
Ciudad Miguel Alemán,26.399521,-99.028359,Mexico,MX,Tamaulipas,minor,,
Tlaquiltenango,18.634287,-99.163198,Mexico,MX,Morelos,minor,,
San Pedro Comitancillo,16.49134,-95.15649,Mexico,MX,Oaxaca,minor,,
Comitán de Domínguez,16.247101,-92.135148,Mexico,MX,Chiapas,minor,,
Magdalena,18.761341,-97.045143,Mexico,MX,Veracruz,minor,,
San Lorenzo,16.394826,-97.874025,Mexico,MX,Oaxaca,minor,,
San Ildefonso Villa Alta,17.338267,-96.152316,Mexico,MX,Oaxaca,minor,,
Santiago Huajolotitlán,17.827831,-97.732663,Mexico,MX,Oaxaca,minor,,
Santiago Huauclilla,17.451785,-97.072765,Mexico,MX,Oaxaca,minor,,
Tlahuitoltepec,17.097457,-96.062788,Mexico,MX,Oaxaca,minor,,
Villa Cuauhtémoc Otzolotepec,19.416762,-99.558719,Mexico,MX,México,minor,,
Villa de Álvarez,19.261472,-103.738066,Mexico,MX,Colima,minor,,
Yucuita,17.510726,-97.269651,Mexico,MX,Oaxaca,minor,,
Yagul,16.964127,-96.453439,Mexico,MX,Oaxaca,minor,,
Coatlán del Río,18.744235,-99.433237,Mexico,MX,Morelos,minor,,
San José Villa de Allende,19.37521,-100.1485,Mexico,MX,México,minor,,
Villa Aldama,19.649791,-97.222772,Mexico,MX,Veracruz,minor,,
Chietla,18.518878,-98.579643,Mexico,MX,Puebla,minor,,
Tzintzuntzán,19.628474,-101.578308,Mexico,MX,Michoacán de Ocampo,minor,,
San Miguel Ixitlán,18.000824,-97.774831,Mexico,MX,Puebla,minor,,
Tarímbaro,19.794712,-101.175769,Mexico,MX,Michoacán de Ocampo,minor,,
San Juan Sayultepec,17.453057,-97.284807,Mexico,MX,Oaxaca,minor,,
San Mateo Etlatongo,17.416086,-97.273895,Mexico,MX,Oaxaca,minor,,
