city,lat,lng,country,iso2,admin,capital,population,population_proper
Lagos,6.454066,3.394673,Nigeria,NG,Lagos,minor,9466000,1536
Kano,12.002381,8.51316,Nigeria,NG,Kano,admin,3140000,3140000
Ibadan,7.377562,3.905907,Nigeria,NG,Oyo,admin,2628000,1814570
Abuja,9.083333,7.533333,Nigeria,NG,Federal Capital Territory,primary,1576000,162135
Kaduna,10.526413,7.438795,Nigeria,NG,Kaduna,admin,1442000,940593
Benin City,6.338153,5.625749,Nigeria,NG,Edo,admin,1190000,668026
Ikare,7.525913,5.753417,Nigeria,NG,Ondo,minor,1099931,700000
Port Harcourt,4.777423,7.013404,Nigeria,NG,Rivers,admin,1020000,1020000
Ogbomoso,8.133725,4.240144,Nigeria,NG,Oyo,minor,951000,239127
Aba,5.106576,7.366667,Nigeria,NG,Abia,minor,897560,851210
Maiduguri,11.846924,13.157122,Nigeria,NG,Borno,admin,896000,512460
Zaria,11.078945,7.710359,Nigeria,NG,Kaduna,minor,889000,620673
Warri,5.51737,5.750064,Nigeria,NG,Delta,minor,830106,536023
Jos,9.92849,8.892118,Nigeria,NG,Plateau,admin,816824,657313
Ilorin,8.496642,4.542143,Nigeria,NG,Kwara,admin,771000,632484
Oyo,7.852575,3.931249,Nigeria,NG,Oyo,minor,736072,213961
Sokoto,13.048025,5.214285,Nigeria,NG,Sokoto,,732178,563861
Enugu,6.441321,7.498834,Nigeria,NG,Enugu,admin,688862,688862
Abeokuta,7.15571,3.345086,Nigeria,NG,Ogun,admin,593100,289362
Uyo,5.033333,7.92657,Nigeria,NG,Akwa Ibom,admin,554906,436606
Awka,6.21269,7.071986,Nigeria,NG,Anambra,admin,500000,301657
Ile-Ife,7.482405,4.560324,Nigeria,NG,Osun,minor,482365,482365
Calabar,4.958931,8.32695,Nigeria,NG,Cross River,admin,461796,247517
Ado-Ekiti,7.623289,5.22087,Nigeria,NG,Ekiti,admin,446749,446749
Katsina,12.990823,7.601769,Nigeria,NG,Katsina,admin,432149,432149
Akure,7.25256,5.193118,Nigeria,NG,Ondo,admin,420594,420594
Osogbo,7.771045,4.556979,Nigeria,NG,Osun,admin,408245,408245
Bauchi,10.310321,9.843883,Nigeria,NG,Bauchi,admin,316149,172552
Mele,5.889152,5.701355,Nigeria,NG,Delta,,309162,161686
Makurdi North,7.7493,8.5508,Nigeria,NG,Benue,,292645,198090
Minna,9.615235,6.54776,Nigeria,NG,Niger,admin,291905,206171
Owo,7.196195,5.586806,Nigeria,NG,Ondo,minor,276574,125250
Gombe,10.28969,11.167288,Nigeria,NG,Gombe,admin,270366,250258
Umuahia,5.524913,7.494613,Nigeria,NG,Abia,admin,264662,264662
Ondo,7.093165,4.835277,Nigeria,NG,Ondo,minor,257005,255883
Damaturu,11.746968,11.960826,Nigeria,NG,Yobe,admin,255895,255895
Iwo,7.635268,4.181556,Nigeria,NG,Osun,minor,250443,166934
Gusau,12.17024,6.664116,Nigeria,NG,Zamfara,admin,226857,144993
Mubi,10.268585,13.267013,Nigeria,NG,Adamawa,minor,225705,203715
Owerri,5.483626,7.033248,Nigeria,NG,Imo,admin,215038,215038
Ijebu-Ode,6.819444,3.917311,Nigeria,NG,Ogun,minor,209175,199827
Funtua,11.523505,7.311744,Nigeria,NG,Katsina,minor,180475,136811
Bida,9.080442,6.009902,Nigeria,NG,Niger,minor,173849,171656
Lafia,8.493897,8.515316,Nigeria,NG,Nasarawa,admin,127236,31705
Gashua,12.873976,11.040568,Nigeria,NG,Yobe,minor,125817,23834
Buzawa,11.545362,13.684518,Nigeria,NG,Borno,,118121,54699
Jalingo,8.893668,11.359596,Nigeria,NG,Taraba,admin,117757,89789
Nsukka,6.856543,7.385977,Nigeria,NG,Enugu,minor,111017,111017
Nguru,12.876952,10.455361,Nigeria,NG,Yobe,minor,111014,53948
Birnin Kebbi,12.453889,4.1975,Nigeria,NG,Kebbi,admin,108164,96517
Azare,11.674783,10.190687,Nigeria,NG,Bauchi,minor,105687,70138
Kontagora,10.403189,5.470797,Nigeria,NG,Niger,minor,98754,25534
Iseyin,7.97022,3.596256,Nigeria,NG,Oyo,minor,98071,98071
Yola,9.208394,12.481464,Nigeria,NG,Adamawa,admin,96006,88500
Biu,10.612854,12.194579,Nigeria,NG,Borno,minor,95005,34234
Wukari,7.871393,9.77786,Nigeria,NG,Taraba,minor,92933,55828
Potiskum,11.713909,11.081077,Nigeria,NG,Yobe,minor,86002,79465
Keffi,8.84651,7.873539,Nigeria,NG,Nasarawa,minor,85911,68202
Numan,9.463742,12.03062,Nigeria,NG,Adamawa,minor,77617,12729
Idah,7.113446,6.73866,Nigeria,NG,Kogi,minor,75087,68703
Onitsha,6.149779,6.78569,Nigeria,NG,Anambra,minor,73374,73374
Otukpo,7.193963,8.134556,Nigeria,NG,Benue,minor,68220,68220
Lokoja,7.796882,6.740481,Nigeria,NG,Kogi,admin,60579,44722
Kumo,10.048067,11.210555,Nigeria,NG,Gombe,minor,35712,2786
Opobo,4.513882,7.537941,Nigeria,NG,Rivers,minor,34911,34911
Koko,11.421544,4.516867,Nigeria,NG,Kebbi,,25792,25792
Dutse,11.75618,9.338959,Nigeria,NG,Jigawa,admin,17129,17129
Orlu,5.795645,7.035126,Nigeria,NG,Imo,minor,9351,9351
Kankara,11.931137,7.411149,Nigeria,NG,Katsina,minor,,
Gwagwalada,8.943423,7.08165,Nigeria,NG,Federal Capital Territory,minor,,
Kebbe,12.128615,4.73433,Nigeria,NG,Sokoto,minor,,
Keana,8.147244,8.796008,Nigeria,NG,Nasarawa,minor,,
Gbajimba,7.820399,8.859545,Nigeria,NG,Benue,minor,,
Ikot Ekpene,5.18194,7.714812,Nigeria,NG,Akwa Ibom,minor,,
Ririwai,10.74025,8.741285,Nigeria,NG,Kano,minor,,
Kabba,7.827192,6.075021,Nigeria,NG,Kogi,minor,,
Darazo,10.999201,10.410618,Nigeria,NG,Bauchi,minor,,
Issele-Uku,6.315839,6.47599,Nigeria,NG,Delta,minor,,
Makarfi,11.377342,7.880977,Nigeria,NG,Kaduna,minor,,
Gombi,10.167556,12.736843,Nigeria,NG,Adamawa,minor,,
Utu Etim Ekpo,5.004848,7.610283,Nigeria,NG,Akwa Ibom,minor,,
Katcha,8.760758,6.312003,Nigeria,NG,Niger,minor,,
Igbara-Oke,7.411719,5.058054,Nigeria,NG,Ondo,minor,,
Garun Malam,11.685659,8.369856,Nigeria,NG,Kano,minor,,
Hong,10.233045,12.928052,Nigeria,NG,Adamawa,minor,,
Ikotun,6.544333,3.263789,Nigeria,NG,Lagos,minor,,
Nkwerre,5.759175,7.103836,Nigeria,NG,Imo,minor,,
Mafa,11.924171,13.600656,Nigeria,NG,Borno,minor,,
Nasko,10.495389,4.899036,Nigeria,NG,Niger,minor,,
Festac Town,6.469698,3.282988,Nigeria,NG,Lagos,minor,,
Nguzu Edda,5.755433,7.817206,Nigeria,NG,Ebonyi,minor,,
Dukku,10.823794,10.772211,Nigeria,NG,Gombe,minor,,
Illela,13.730642,5.297772,Nigeria,NG,Sokoto,minor,,
Effraya,5.859256,8.723006,Nigeria,NG,Cross River,minor,,
Isinweke,5.620478,7.349854,Nigeria,NG,Imo,minor,,
Kiri Kasamma,12.692734,10.254557,Nigeria,NG,Jigawa,minor,,
Ugba,7.506998,9.348042,Nigeria,NG,Benue,minor,,
Obiozara,6.04644,7.772727,Nigeria,NG,Ebonyi,minor,,
Gwoza,11.083125,13.695948,Nigeria,NG,Borno,minor,,
Mashegu,9.972126,5.778858,Nigeria,NG,Niger,minor,,
Yelwa,10.835048,4.742439,Nigeria,NG,Kebbi,minor,,
Giwa,11.315678,7.44957,Nigeria,NG,Kaduna,minor,,
Imeko,7.448876,2.842887,Nigeria,NG,Ogun,minor,,
Iyara,7.843247,5.970615,Nigeria,NG,Kogi,minor,,
Umundugba,5.675968,7.071842,Nigeria,NG,Imo,minor,,
Fugar,7.090761,6.498283,Nigeria,NG,Edo,minor,,
Garaku,8.847168,8.130211,Nigeria,NG,Nasarawa,minor,,
Agenebode,7.105121,6.69381,Nigeria,NG,Edo,minor,,
Jimeta,9.27949,12.458185,Nigeria,NG,Adamawa,minor,,
Oghara,5.935541,5.666096,Nigeria,NG,Delta,minor,,
Kachia,9.873417,7.95407,Nigeria,NG,Kaduna,minor,,
Awgu,6.072778,7.477386,Nigeria,NG,Enugu,minor,,
Osisioma,5.159795,7.322346,Nigeria,NG,Abia,minor,,
Agege,6.615632,3.333369,Nigeria,NG,Lagos,minor,,
Batsari,12.755508,7.248088,Nigeria,NG,Katsina,minor,,
Angware,9.991051,9.108105,Nigeria,NG,Plateau,minor,,
Iragbiji,7.903998,4.687045,Nigeria,NG,Osun,minor,,
Ugep,5.80865,8.080976,Nigeria,NG,Cross River,minor,,
Ughelli,5.489555,6.004069,Nigeria,NG,Delta,minor,,
Wurno,13.290475,5.423729,Nigeria,NG,Sokoto,minor,,
Bogoro,9.669044,9.605275,Nigeria,NG,Bauchi,minor,,
Mabudi,8.730372,9.785124,Nigeria,NG,Plateau,minor,,
Abakaliki,6.324851,8.11368,Nigeria,NG,Ebonyi,admin,,
Abak,4.982357,7.789217,Nigeria,NG,Akwa Ibom,minor,,
Kiru,11.702098,8.134807,Nigeria,NG,Kano,minor,,
Jama’are,11.669795,9.927996,Nigeria,NG,Bauchi,minor,,
Orerokpe,5.637471,5.890126,Nigeria,NG,Delta,minor,,
Uquo,4.658319,8.058684,Nigeria,NG,Akwa Ibom,minor,,
Song,9.826747,12.623801,Nigeria,NG,Adamawa,minor,,
Odeda,7.232508,3.528193,Nigeria,NG,Ogun,minor,,
Afor-Oru,5.541103,7.268447,Nigeria,NG,Imo,minor,,
Kaura Namoda,12.593715,6.586484,Nigeria,NG,Zamfara,minor,,
Lissam,7.196098,10.046204,Nigeria,NG,Taraba,minor,,
Ribah,11.396367,5.486311,Nigeria,NG,Kebbi,minor,,
Ojota,6.578063,3.386858,Nigeria,NG,Lagos,minor,,
Anka,12.113466,5.926809,Nigeria,NG,Zamfara,minor,,
Gamawa,12.133786,10.53785,Nigeria,NG,Bauchi,minor,,
Gamboru,12.372995,14.206903,Nigeria,NG,Borno,minor,,
Okene,7.551219,6.23589,Nigeria,NG,Kogi,minor,,
Omuo-Ekiti,7.759144,5.722496,Nigeria,NG,Ekiti,minor,,
Lamurde,9.608162,11.793151,Nigeria,NG,Adamawa,minor,,
Fika,11.286744,11.307724,Nigeria,NG,Yobe,minor,,
Tsafe,11.957746,6.920832,Nigeria,NG,Zamfara,minor,,
Ugbodo,6.511548,8.129841,Nigeria,NG,Ebonyi,minor,,
Iyana-Ofa,7.500427,4.081036,Nigeria,NG,Oyo,minor,,
Okpoga,7.039108,7.812254,Nigeria,NG,Benue,minor,,
Ogbere,6.739476,4.161021,Nigeria,NG,Ogun,minor,,
Sule Tankarkar,12.666861,9.228278,Nigeria,NG,Jigawa,minor,,
Eyofin,4.751596,8.230556,Nigeria,NG,Akwa Ibom,minor,,
Ifon,7.859925,4.476211,Nigeria,NG,Osun,minor,,
Ifetedo,7.18419,4.70046,Nigeria,NG,Osun,minor,,
Isa,13.200659,6.404873,Nigeria,NG,Sokoto,minor,,
Karu,9.009432,7.661472,Nigeria,NG,Nasarawa,minor,,
Kafin Hausa,12.239329,9.911054,Nigeria,NG,Jigawa,minor,,
Albasu,11.67403,9.140586,Nigeria,NG,Kano,minor,,
Goronyo,13.442258,5.672339,Nigeria,NG,Sokoto,minor,,
Birniwa,12.7907,10.236144,Nigeria,NG,Jigawa,minor,,
Marte,12.365027,13.830184,Nigeria,NG,Borno,minor,,
Malumfashi,11.789346,7.620612,Nigeria,NG,Katsina,minor,,
Shelleng,9.896473,12.005717,Nigeria,NG,Adamawa,minor,,
Ikoyi,6.452539,3.435841,Nigeria,NG,Lagos,minor,,
Ikoyi-Ile,8.2444,4.171807,Nigeria,NG,Oyo,minor,,
Lapai,9.044385,6.570887,Nigeria,NG,Niger,minor,,
Ehor,6.615495,5.982379,Nigeria,NG,Edo,minor,,
Abonnema,4.731714,6.772234,Nigeria,NG,Rivers,minor,,
Jobele,7.763003,3.919348,Nigeria,NG,Oyo,minor,,
Riyom,9.636807,8.756944,Nigeria,NG,Plateau,minor,,
Odo-Ere,8.250575,5.549792,Nigeria,NG,Kogi,minor,,
Kaltungo,9.81998,11.308706,Nigeria,NG,Gombe,minor,,
Otu,8.206504,3.407355,Nigeria,NG,Oyo,minor,,
Obiaruku,5.846717,6.152899,Nigeria,NG,Delta,minor,,
Afuze,6.969454,6.042536,Nigeria,NG,Edo,minor,,
Umumma,5.756899,6.946129,Nigeria,NG,Imo,minor,,
Akpafa,7.471923,6.149787,Nigeria,NG,Kogi,minor,,
Sagbama,5.159147,6.196661,Nigeria,NG,Bayelsa,minor,,
Kumbotso,11.890015,8.502998,Nigeria,NG,Kano,minor,,
Ingawa,12.641378,8.051623,Nigeria,NG,Katsina,minor,,
Abagana,6.190311,6.993566,Nigeria,NG,Anambra,minor,,
Kaita,13.083461,7.740916,Nigeria,NG,Katsina,minor,,
Saminaka,10.412266,8.687477,Nigeria,NG,Kaduna,minor,,
Hunkuyi,11.266796,7.649155,Nigeria,NG,Kaduna,minor,,
Anaku,6.468752,6.928928,Nigeria,NG,Anambra,minor,,
Ijebu-Jesa,7.682671,4.814356,Nigeria,NG,Osun,minor,,
Guri,12.728102,10.419886,Nigeria,NG,Jigawa,minor,,
Lessel,7.127287,9.019813,Nigeria,NG,Benue,minor,,
Vandeikya,6.784806,9.067989,Nigeria,NG,Benue,minor,,
Billiri,9.890243,11.217938,Nigeria,NG,Gombe,minor,,
Okopedi,4.849179,8.125642,Nigeria,NG,Akwa Ibom,minor,,
Afaha Offiong,4.862263,7.906263,Nigeria,NG,Akwa Ibom,minor,,
Odukpani,5.133746,8.338144,Nigeria,NG,Cross River,minor,,
Nung Udoe,4.916569,7.96314,Nigeria,NG,Akwa Ibom,minor,,
Ozubulu,5.95753,6.853046,Nigeria,NG,Anambra,minor,,
Yusufari,13.066106,11.173478,Nigeria,NG,Yobe,minor,,
Garki,12.434558,9.190283,Nigeria,NG,Jigawa,minor,,
Sapele,5.894053,5.67666,Nigeria,NG,Delta,minor,,
Rijau,11.103893,5.255563,Nigeria,NG,Niger,minor,,
Besse,11.266757,4.431145,Nigeria,NG,Kebbi,minor,,
Talata Mafara,12.568411,6.062246,Nigeria,NG,Zamfara,minor,,
Talasse,9.968433,11.679454,Nigeria,NG,Gombe,minor,,
Ore,6.747164,4.876103,Nigeria,NG,Ondo,minor,,
Okoroete,4.540765,7.748579,Nigeria,NG,Akwa Ibom,minor,,
Shanono,12.051536,7.992,Nigeria,NG,Kano,minor,,
Jada,8.756817,12.155366,Nigeria,NG,Adamawa,minor,,
Rabah,13.122573,5.507616,Nigeria,NG,Sokoto,minor,,
Gembu,6.719209,11.253517,Nigeria,NG,Taraba,minor,,
Safana,12.410754,7.414556,Nigeria,NG,Katsina,minor,,
Dekina,7.689671,7.043802,Nigeria,NG,Kogi,minor,,
Ikeja,6.596506,3.342052,Nigeria,NG,Lagos,admin,,
Ode-Irele,6.494184,4.870359,Nigeria,NG,Ondo,minor,,
Urualla,5.85397,7.099064,Nigeria,NG,Imo,minor,,
Sokoto,13.062695,5.243225,Nigeria,NG,Sokoto,admin,,
Agbor,6.253748,6.194201,Nigeria,NG,Delta,minor,,
Kurfi,12.6663,7.484779,Nigeria,NG,Katsina,minor,,
Ankpa,7.402485,7.631959,Nigeria,NG,Kogi,minor,,
Gubio,12.497488,12.780888,Nigeria,NG,Borno,minor,,
Ibi,8.181216,9.744305,Nigeria,NG,Taraba,minor,,
Baap,8.943205,9.241258,Nigeria,NG,Plateau,minor,,
Ilaro,6.889011,3.014162,Nigeria,NG,Ogun,minor,,
Ise-Ekiti,7.464778,5.423328,Nigeria,NG,Ekiti,minor,,
Burutu,5.353283,5.508265,Nigeria,NG,Delta,minor,,
Nasarawa Egon,8.71226,8.540598,Nigeria,NG,Nasarawa,minor,,
Ungogo,12.09171,8.495307,Nigeria,NG,Kano,minor,,
Koko,6.000843,5.455225,Nigeria,NG,Delta,minor,,
Oka,7.460121,5.801743,Nigeria,NG,Ondo,minor,,
Ogaminana,7.593826,6.217976,Nigeria,NG,Kogi,minor,,
Iwere-Ile,7.999191,3.088266,Nigeria,NG,Oyo,minor,,
Ahoada,5.082805,6.649813,Nigeria,NG,Rivers,minor,,
Bunkure,11.699236,8.541266,Nigeria,NG,Kano,minor,,
Kunchi,12.502601,8.27092,Nigeria,NG,Kano,minor,,
Akwanga,8.910769,8.406552,Nigeria,NG,Nasarawa,minor,,
Igbo-Ora,7.433834,3.287879,Nigeria,NG,Oyo,minor,,
Bama,11.521339,13.689524,Nigeria,NG,Borno,minor,,
Bajoga,10.851518,11.431689,Nigeria,NG,Gombe,minor,,
Ganye,8.434972,12.051073,Nigeria,NG,Adamawa,minor,,
Rimi,12.850298,7.709745,Nigeria,NG,Katsina,minor,,
Deba,10.211867,11.387101,Nigeria,NG,Gombe,minor,,
Efon-Alaaye,7.656495,4.922354,Nigeria,NG,Ekiti,minor,,
Effurun,5.556294,5.784591,Nigeria,NG,Delta,minor,,
Itas,11.857505,9.963943,Nigeria,NG,Bauchi,minor,,
Mopa,8.103872,5.892798,Nigeria,NG,Kogi,minor,,
Takum,7.255323,9.985512,Nigeria,NG,Taraba,minor,,
Aboh,5.475689,7.271606,Nigeria,NG,Imo,minor,,
Eruwa,7.53365,3.41796,Nigeria,NG,Oyo,minor,,
Aboh,5.547815,6.525879,Nigeria,NG,Delta,minor,,
Fufore,9.221748,12.649747,Nigeria,NG,Adamawa,minor,,
Fufu,8.448382,4.720768,Nigeria,NG,Kwara,minor,,
Adikpo,6.890017,9.23351,Nigeria,NG,Benue,minor,,
Mutum Biyu,8.641381,10.773549,Nigeria,NG,Taraba,minor,,
Odoro Ikpe,5.358349,7.751844,Nigeria,NG,Akwa Ibom,minor,,
Kafin Madaki,10.688558,9.760513,Nigeria,NG,Bauchi,minor,,
Kagara,10.186623,6.254852,Nigeria,NG,Niger,minor,,
Dambatta,12.434997,8.515314,Nigeria,NG,Kano,minor,,
Damboa,11.155338,12.75638,Nigeria,NG,Borno,minor,,
Omoba,5.242684,7.406232,Nigeria,NG,Abia,minor,,
Mani,12.854262,7.875261,Nigeria,NG,Katsina,minor,,
Isua,7.453609,5.910472,Nigeria,NG,Ondo,minor,,
Babura,12.77256,9.015251,Nigeria,NG,Jigawa,minor,,
Ukpor,5.942113,6.929313,Nigeria,NG,Anambra,minor,,
Owode,6.94851,3.505605,Nigeria,NG,Ogun,minor,,
Mgbidi,5.732361,6.888693,Nigeria,NG,Imo,minor,,
Misau,11.313699,10.466637,Nigeria,NG,Bauchi,minor,,
Toto,8.387596,7.077511,Nigeria,NG,Nasarawa,minor,,
Ijero-Ekiti,7.815138,5.067162,Nigeria,NG,Ekiti,minor,,
Aliero,12.288353,4.471391,Nigeria,NG,Kebbi,minor,,
Mangu,9.520595,9.097695,Nigeria,NG,Plateau,minor,,
Iperindo,7.50119,4.824773,Nigeria,NG,Osun,minor,,
Charanchi,12.671545,7.729292,Nigeria,NG,Katsina,minor,,
Ndeaboh,6.034054,7.568428,Nigeria,NG,Enugu,minor,,
Igbekebo,6.355206,4.86221,Nigeria,NG,Ondo,minor,,
Gulak,10.805298,13.458241,Nigeria,NG,Adamawa,minor,,
Langtang,9.141639,9.791007,Nigeria,NG,Plateau,minor,,
Bindawa,12.669875,7.808654,Nigeria,NG,Katsina,minor,,
Dapchi,12.495362,11.499775,Nigeria,NG,Yobe,minor,,
Ikot Ibritam,4.811712,7.614012,Nigeria,NG,Akwa Ibom,minor,,
Shendam,8.878659,9.534645,Nigeria,NG,Plateau,minor,,
Iloffa,8.093428,5.142327,Nigeria,NG,Kwara,minor,,
Ilobu,7.84036,4.48557,Nigeria,NG,Osun,minor,,
Ipokia,6.524989,2.842465,Nigeria,NG,Ogun,minor,,
Gwiwa,12.781693,8.337224,Nigeria,NG,Jigawa,minor,,
Obagaji,7.89169,7.909384,Nigeria,NG,Benue,minor,,
Asaba,6.198474,6.727431,Nigeria,NG,Delta,admin,,
Ugwolawo,7.236723,6.92302,Nigeria,NG,Kogi,minor,,
Nto Edino,5.25704,7.575693,Nigeria,NG,Akwa Ibom,minor,,
Kura,11.772319,8.426307,Nigeria,NG,Kano,minor,,
Sabuwa,11.173722,7.121127,Nigeria,NG,Katsina,minor,,
Kankia,12.546366,7.822544,Nigeria,NG,Katsina,minor,,
Wara,10.228844,4.623629,Nigeria,NG,Kebbi,minor,,
Agwara,10.706111,4.581254,Nigeria,NG,Niger,minor,,
Oke-Oyi,8.582635,4.716223,Nigeria,NG,Kwara,minor,,
Gboko,7.322755,9.001078,Nigeria,NG,Benue,minor,,
Apomu,7.35156,4.183354,Nigeria,NG,Osun,minor,,
Bagwai,12.157704,8.1358,Nigeria,NG,Kano,minor,,
Damagum,11.678237,11.335174,Nigeria,NG,Yobe,minor,,
Iresa-Adu,8.087473,4.39264,Nigeria,NG,Oyo,minor,,
Sankwala,6.547535,9.222584,Nigeria,NG,Cross River,minor,,
Ilawe-Ekiti,7.598812,5.104698,Nigeria,NG,Ekiti,minor,,
Bode Osi,7.751031,4.229796,Nigeria,NG,Osun,minor,,
Balle,13.470286,4.681189,Nigeria,NG,Sokoto,minor,,
Emuoha,4.883996,6.860104,Nigeria,NG,Rivers,minor,,
Dange,12.853128,5.345724,Nigeria,NG,Sokoto,minor,,
Barkin Ladi,9.538124,8.892701,Nigeria,NG,Plateau,minor,,
Somolu,6.538907,3.374197,Nigeria,NG,Lagos,minor,,
Oguta,5.710435,6.809365,Nigeria,NG,Imo,minor,,
Neni,6.095105,7.024256,Nigeria,NG,Anambra,minor,,
Ogidi,6.152093,6.863435,Nigeria,NG,Anambra,minor,,
Agaie,9.008498,6.318206,Nigeria,NG,Niger,minor,,
Otu-Jeremi,5.438183,5.878286,Nigeria,NG,Delta,minor,,
Otukpa,7.101675,7.659447,Nigeria,NG,Benue,minor,,
Oko Ita,5.191995,7.895309,Nigeria,NG,Akwa Ibom,minor,,
Saki,8.667619,3.393929,Nigeria,NG,Oyo,minor,,
Suleja,9.18059,7.179393,Nigeria,NG,Niger,minor,,
Kabo,11.856063,8.170203,Nigeria,NG,Kano,minor,,
Gella,10.157379,13.300036,Nigeria,NG,Adamawa,minor,,
Igbokoda,6.352656,4.804058,Nigeria,NG,Ondo,minor,,
Maiyama,12.082245,4.369067,Nigeria,NG,Kebbi,minor,,
Obarike-Ito,7.024501,8.32358,Nigeria,NG,Benue,minor,,
Irrua,6.736335,6.219839,Nigeria,NG,Edo,minor,,
Itigidi,5.891471,8.021865,Nigeria,NG,Cross River,minor,,
Oron,4.821712,8.235038,Nigeria,NG,Akwa Ibom,minor,,
Akinima,5.085357,6.466333,Nigeria,NG,Rivers,minor,,
Nkwo Nike,6.509214,7.510064,Nigeria,NG,Enugu,minor,,
Gezawa,12.101573,8.750295,Nigeria,NG,Kano,minor,,
Dutsi,12.828624,8.139804,Nigeria,NG,Katsina,minor,,
Mai’Adua,13.179858,8.230396,Nigeria,NG,Katsina,minor,,
New Bussa,9.886442,4.508545,Nigeria,NG,Niger,minor,,
Gwarzo,11.915973,7.933704,Nigeria,NG,Kano,minor,,
Bokkos,9.299209,8.994667,Nigeria,NG,Plateau,minor,,
Jibia,13.093783,7.226241,Nigeria,NG,Katsina,minor,,
Nasarawa,8.538945,7.708205,Nigeria,NG,Nasarawa,minor,,
Mahuta,11.553375,4.981384,Nigeria,NG,Kebbi,minor,,
Oguma,7.896345,7.062286,Nigeria,NG,Kogi,minor,,
Onuebonyi Echara,6.0954,8.151566,Nigeria,NG,Ebonyi,minor,,
Kujama,10.457665,7.638076,Nigeria,NG,Kaduna,minor,,
Ikere-Ekiti,7.497482,5.230414,Nigeria,NG,Ekiti,minor,,
Ayetoro,7.242809,3.026386,Nigeria,NG,Ogun,minor,,
Ilesa,7.627891,4.741609,Nigeria,NG,Osun,minor,,
Gagarawa,12.40848,9.528811,Nigeria,NG,Jigawa,minor,,
Sabongida-Ora,6.902313,5.931175,Nigeria,NG,Edo,minor,,
Zing,8.990636,11.747634,Nigeria,NG,Taraba,minor,,
Sandamu,12.961627,8.360171,Nigeria,NG,Katsina,minor,,
Shinkafi,13.072961,6.50574,Nigeria,NG,Zamfara,minor,,
Obubra,6.076719,8.332414,Nigeria,NG,Cross River,minor,,
Obudu,6.668185,9.164528,Nigeria,NG,Cross River,minor,,
Rimin Gado,11.967202,8.2476,Nigeria,NG,Kano,minor,,
Kazaure,12.648462,8.411777,Nigeria,NG,Jigawa,minor,,
Karim Lamido,9.314298,11.18731,Nigeria,NG,Taraba,minor,,
Urue Offong,4.752747,8.167705,Nigeria,NG,Akwa Ibom,minor,,
Egbeda,7.3772,4.049754,Nigeria,NG,Oyo,minor,,
Okehi,5.138952,7.139154,Nigeria,NG,Rivers,minor,,
Kafanchan,9.581262,8.2926,Nigeria,NG,Kaduna,minor,,
Ile-Oluji,7.213092,4.869018,Nigeria,NG,Ondo,minor,,
Isu,6.150016,7.801312,Nigeria,NG,Ebonyi,minor,,
Moniya,7.528428,3.911563,Nigeria,NG,Oyo,minor,,
Monguno,12.670587,13.61224,Nigeria,NG,Borno,minor,,
Bunza,12.088215,4.015201,Nigeria,NG,Kebbi,minor,,
Pantisawa,8.945043,11.511759,Nigeria,NG,Taraba,minor,,
Obangede,7.620658,6.199285,Nigeria,NG,Kogi,minor,,
Bali,7.855327,10.967835,Nigeria,NG,Taraba,minor,,
Ugbokpo,7.653207,7.884098,Nigeria,NG,Benue,minor,,
Bonny,4.451601,7.170744,Nigeria,NG,Rivers,minor,,
Oji River,6.255635,7.270249,Nigeria,NG,Enugu,minor,,
Ojo,6.461165,3.16466,Nigeria,NG,Lagos,minor,,
Yana,11.40724,10.013454,Nigeria,NG,Bauchi,minor,,
Karkarna,12.766528,8.509805,Nigeria,NG,Jigawa,minor,,
Okpuala-Ngwa,5.357097,7.387648,Nigeria,NG,Abia,minor,,
Okigwe,5.829168,7.350559,Nigeria,NG,Imo,minor,,
Bolorunduro,7.165862,4.963698,Nigeria,NG,Ondo,minor,,
Serti,7.505744,11.3631,Nigeria,NG,Taraba,minor,,
Akwete,4.886881,7.356864,Nigeria,NG,Abia,minor,,
Akwukwu-Igbo,6.357532,6.590661,Nigeria,NG,Delta,minor,,
Nchia,4.793088,7.120605,Nigeria,NG,Rivers,minor,,
Wushishi,9.730355,6.073049,Nigeria,NG,Niger,minor,,
Dakingari,11.648094,4.061771,Nigeria,NG,Kebbi,minor,,
Aramoko-Ekiti,7.704831,5.040539,Nigeria,NG,Ekiti,minor,,
Maradun,12.567038,6.244069,Nigeria,NG,Zamfara,minor,,
Agbani,6.306687,7.54862,Nigeria,NG,Enugu,minor,,
Birnin Gwari,10.663737,6.540028,Nigeria,NG,Kaduna,minor,,
Bassa,9.942486,8.740421,Nigeria,NG,Plateau,minor,,
Sunkani,8.702981,11.257568,Nigeria,NG,Taraba,minor,,
Oke-Ikpe,4.913015,7.319358,Nigeria,NG,Abia,minor,,
Ota,6.688673,3.232015,Nigeria,NG,Ogun,minor,,
Patigi,8.72851,5.755615,Nigeria,NG,Kwara,minor,,
Awo-Idemili,5.826485,6.933742,Nigeria,NG,Imo,minor,,
Sabon Wuse,9.33424,7.261136,Nigeria,NG,Niger,minor,,
Mallam Sidi,10.468303,11.292939,Nigeria,NG,Gombe,minor,,
Gwandu,12.502043,4.642948,Nigeria,NG,Kebbi,minor,,
Oshodi,6.555044,3.343626,Nigeria,NG,Lagos,minor,,
Egbema,5.544346,6.760896,Nigeria,NG,Imo,minor,,
Tede,8.55625,3.446383,Nigeria,NG,Oyo,minor,,
Bagudo,11.403509,4.225712,Nigeria,NG,Kebbi,minor,,
Surulere,6.501532,3.358076,Nigeria,NG,Lagos,minor,,
Ekpoma,6.743002,6.140288,Nigeria,NG,Edo,minor,,
Warawa,11.866207,8.701458,Nigeria,NG,Kano,minor,,
Ikot Edibon,4.770218,7.930996,Nigeria,NG,Akwa Ibom,minor,,
Ezillo,6.429296,7.817873,Nigeria,NG,Ebonyi,minor,,
Dikwa,12.036094,13.918152,Nigeria,NG,Borno,minor,,
Epe,6.584317,3.978511,Nigeria,NG,Lagos,minor,,
Bungudu,12.268483,6.552882,Nigeria,NG,Zamfara,minor,,
Omoku,5.343881,6.656838,Nigeria,NG,Rivers,minor,,
Kukawa,12.924753,13.566168,Nigeria,NG,Borno,minor,,
Kaugama,12.474309,9.736707,Nigeria,NG,Jigawa,minor,,
Ikom,5.962385,8.708234,Nigeria,NG,Cross River,minor,,
Baure,12.837716,8.74513,Nigeria,NG,Katsina,minor,,
Paiko,9.436855,6.633571,Nigeria,NG,Niger,minor,,
Turunku,10.804326,7.696387,Nigeria,NG,Kaduna,minor,,
Okwe,5.777429,7.217944,Nigeria,NG,Imo,minor,,
Okpo,7.216263,7.560225,Nigeria,NG,Kogi,minor,,
Kuje,8.879523,7.227557,Nigeria,NG,Federal Capital Territory,minor,,
Auyo,12.333377,9.938905,Nigeria,NG,Jigawa,minor,,
Kajuru,10.322811,7.684617,Nigeria,NG,Kaduna,minor,,
Toro,10.058892,9.069096,Nigeria,NG,Bauchi,minor,,
Sabon Birni,13.563874,6.323546,Nigeria,NG,Sokoto,minor,,
Ikenne,6.865789,3.715179,Nigeria,NG,Ogun,minor,,
Gbongan,7.477343,4.353506,Nigeria,NG,Osun,minor,,
Zuru,11.43522,5.234935,Nigeria,NG,Kebbi,minor,,
Alkaleri,10.266875,10.332383,Nigeria,NG,Bauchi,minor,,
Igbeti,8.749207,4.131128,Nigeria,NG,Oyo,minor,,
Ikot Abasi,4.568507,7.552616,Nigeria,NG,Akwa Ibom,minor,,
Eberi,5.091167,7.233701,Nigeria,NG,Rivers,minor,,
Gwaram,11.277272,9.883849,Nigeria,NG,Jigawa,minor,,
Ekeremor,5.058053,5.780477,Nigeria,NG,Bayelsa,minor,,
Maigatari,12.807831,9.44516,Nigeria,NG,Jigawa,minor,,
Mayo-Belwa,9.054213,12.05794,Nigeria,NG,Adamawa,minor,,
Anchau,10.962452,8.392329,Nigeria,NG,Kaduna,minor,,
Umulona,6.507887,7.09743,Nigeria,NG,Enugu,minor,,
Demsa,9.455665,12.152493,Nigeria,NG,Adamawa,minor,,
Lemu,9.396367,6.027908,Nigeria,NG,Niger,minor,,
Badagry,6.415017,2.881318,Nigeria,NG,Lagos,minor,,
Abejukolo,7.868077,7.509072,Nigeria,NG,Kogi,minor,,
Ayete,7.542862,3.222631,Nigeria,NG,Oyo,minor,,
Isara,6.99345,3.681477,Nigeria,NG,Ogun,minor,,
Maiha,9.996722,13.216652,Nigeria,NG,Adamawa,minor,,
Kangiwa,12.553389,3.818141,Nigeria,NG,Kebbi,minor,,
Arochukwu,5.389405,7.912346,Nigeria,NG,Abia,minor,,
Takai,11.575692,9.108804,Nigeria,NG,Kano,minor,,
Bende,5.558741,7.633589,Nigeria,NG,Abia,minor,,
Nzam,6.452965,6.728825,Nigeria,NG,Anambra,minor,,
Aguobu-Owa,6.372286,7.271781,Nigeria,NG,Enugu,minor,,
Gudumbali,12.942839,13.178313,Nigeria,NG,Borno,minor,,
Iboko,6.406552,8.233285,Nigeria,NG,Ebonyi,minor,,
Oju,6.845264,8.419135,Nigeria,NG,Benue,minor,,
Ojoto,6.058417,6.861241,Nigeria,NG,Anambra,minor,,
Awe,8.104452,9.140113,Nigeria,NG,Nasarawa,minor,,
Lafiagi,8.852993,5.416413,Nigeria,NG,Kwara,minor,,
Askira,10.650857,12.908833,Nigeria,NG,Borno,minor,,
Garko,11.649745,8.803281,Nigeria,NG,Kano,minor,,
Saakpenwa,4.71677,7.262999,Nigeria,NG,Rivers,minor,,
Bichi,12.233853,8.240627,Nigeria,NG,Kano,minor,,
Umuguma,5.467834,6.965939,Nigeria,NG,Imo,minor,,
Wase,9.094242,9.956051,Nigeria,NG,Plateau,minor,,
Share,8.820865,4.973418,Nigeria,NG,Kwara,minor,,
Kwal,9.371275,9.619202,Nigeria,NG,Plateau,minor,,
Igueben,6.601834,6.242758,Nigeria,NG,Edo,minor,,
Wannune,7.56384,8.885337,Nigeria,NG,Benue,minor,,
Amagunze,6.330629,7.652466,Nigeria,NG,Enugu,minor,,
Toungo,8.117331,12.046108,Nigeria,NG,Adamawa,minor,,
Baissa,7.230866,10.624436,Nigeria,NG,Taraba,minor,,
Oye-Ekiti,7.799765,5.332422,Nigeria,NG,Ekiti,minor,,
Idi-Ayunre,7.232921,3.86152,Nigeria,NG,Oyo,minor,,
Damasak,13.105177,12.50854,Nigeria,NG,Borno,minor,,
Mbalano,5.734324,7.502377,Nigeria,NG,Abia,minor,,
Abudu,6.294886,6.029947,Nigeria,NG,Edo,minor,,
Katsina-Ala,7.169378,9.284646,Nigeria,NG,Benue,minor,,
Ila Orangun,8.017145,4.904207,Nigeria,NG,Osun,minor,,
Buruku,7.459606,9.204549,Nigeria,NG,Benue,minor,,
Kpor,4.652646,7.283968,Nigeria,NG,Rivers,minor,,
Mushin,6.527994,3.354114,Nigeria,NG,Lagos,minor,,
Iho,5.582246,7.098965,Nigeria,NG,Imo,minor,,
Bori,4.676294,7.36519,Nigeria,NG,Rivers,minor,,
Obi,8.369222,8.773834,Nigeria,NG,Nasarawa,minor,,
Koton-Karfe,8.091196,6.797823,Nigeria,NG,Kogi,minor,,
Hadejia,12.453467,10.04115,Nigeria,NG,Jigawa,minor,,
Ikorodu,6.615261,3.506896,Nigeria,NG,Lagos,minor,,
Gummi,12.144843,5.117757,Nigeria,NG,Zamfara,minor,,
Gumel,12.626901,9.388069,Nigeria,NG,Jigawa,minor,,
Augie,12.890269,4.599649,Nigeria,NG,Kebbi,minor,,
Yabo,12.722165,5.013286,Nigeria,NG,Sokoto,minor,,
Udi,6.315924,7.420855,Nigeria,NG,Enugu,minor,,
Ubiaja,6.65581,6.384944,Nigeria,NG,Edo,minor,,
Shagari,12.627273,4.992949,Nigeria,NG,Sokoto,minor,,
Shagamu,6.848498,3.646325,Nigeria,NG,Ogun,minor,,
Ajaawa,7.931176,4.126544,Nigeria,NG,Oyo,minor,,
Okpoma,6.596793,8.637284,Nigeria,NG,Cross River,minor,,
Ago-Amodu,8.623139,3.614192,Nigeria,NG,Oyo,minor,,
Nnenasa,5.732621,7.013641,Nigeria,NG,Imo,minor,,
Isanlu,8.288227,5.818365,Nigeria,NG,Kogi,minor,,
Ikot Nakanda,4.884258,8.483788,Nigeria,NG,Cross River,minor,,
Gawu Babangida,9.278269,6.993352,Nigeria,NG,Niger,minor,,
Gantsa,11.663117,9.726389,Nigeria,NG,Jigawa,minor,,
Sarkin Pawa,10.020944,7.112436,Nigeria,NG,Niger,minor,,
Ningi,11.07837,9.568859,Nigeria,NG,Bauchi,minor,,
Bukkuyum,12.137201,5.468214,Nigeria,NG,Zamfara,minor,,
Rann,12.269375,14.465521,Nigeria,NG,Borno,minor,,
Rano,11.556838,8.580647,Nigeria,NG,Kano,minor,,
Yenagoa,4.926746,6.267636,Nigeria,NG,Bayelsa,admin,,
Binji,13.222944,4.908885,Nigeria,NG,Sokoto,minor,,
Briyel,10.34764,11.609896,Nigeria,NG,Borno,minor,,
Kamba,11.851721,3.65478,Nigeria,NG,Kebbi,minor,,
Ifako,6.644229,3.324876,Nigeria,NG,Lagos,minor,,
Ido-Ekiti,7.845975,5.183143,Nigeria,NG,Ekiti,minor,,
Ido,7.471032,3.7574,Nigeria,NG,Oyo,minor,,
Kusada,12.465602,7.978478,Nigeria,NG,Katsina,minor,,
Igumale,6.79792,7.967936,Nigeria,NG,Benue,minor,,
Degema,4.748071,6.766181,Nigeria,NG,Rivers,minor,,
Argungu,12.74482,4.525136,Nigeria,NG,Kebbi,minor,,
Iguobazuwa,6.565365,5.354427,Nigeria,NG,Edo,minor,,
Ajingi,11.968258,9.036785,Nigeria,NG,Kano,minor,,
Bakura,12.71141,5.873667,Nigeria,NG,Zamfara,minor,,
Girei,9.365259,12.546212,Nigeria,NG,Adamawa,minor,,
Babban Gida,12.154824,11.770904,Nigeria,NG,Yobe,minor,,
Araromi-Opin,8.065273,5.253984,Nigeria,NG,Kwara,minor,,
Zurmi,12.776748,6.784035,Nigeria,NG,Zamfara,minor,,
Uromi,6.709707,6.329813,Nigeria,NG,Edo,minor,,
Gidan Madi,13.295754,4.974666,Nigeria,NG,Sokoto,minor,,
Eket,4.64231,7.924381,Nigeria,NG,Akwa Ibom,minor,,
Boh,9.781873,11.278816,Nigeria,NG,Gombe,minor,,
Makera,10.471402,7.410261,Nigeria,NG,Kaduna,minor,,
Machina,13.136389,10.04924,Nigeria,NG,Yobe,minor,,
Ngo,4.483885,7.41446,Nigeria,NG,Rivers,minor,,
Tunkus,9.021673,9.613845,Nigeria,NG,Plateau,minor,,
Chibok,10.86949,12.846575,Nigeria,NG,Borno,minor,,
Abaji,8.47372,6.944532,Nigeria,NG,Federal Capital Territory,minor,,
Sabon Garin Nangere,11.849454,11.073297,Nigeria,NG,Yobe,minor,,
Sabon Gari,11.118385,7.73316,Nigeria,NG,Kaduna,minor,,
Isiokolo,5.595858,6.00028,Nigeria,NG,Delta,minor,,
Kaiama,9.605305,3.941013,Nigeria,NG,Kwara,minor,,
Kaiama,5.119698,6.301015,Nigeria,NG,Bayelsa,minor,,
Gajiram,12.491494,13.211907,Nigeria,NG,Borno,minor,,
Ukpo,6.214071,6.96657,Nigeria,NG,Anambra,minor,,
Igede-Ekiti,7.668501,5.126274,Nigeria,NG,Ekiti,minor,,
Iju,7.394521,5.25919,Nigeria,NG,Ondo,minor,,
Matazu,12.235489,7.674258,Nigeria,NG,Katsina,minor,,
Ikirun,7.912828,4.667413,Nigeria,NG,Osun,minor,,
Oporoma,4.806044,6.080161,Nigeria,NG,Bayelsa,minor,,
Ogwashi-Uku,6.178106,6.524609,Nigeria,NG,Delta,minor,,
Owa-Oyibu,6.182668,6.199025,Nigeria,NG,Delta,minor,,
Sankera,7.535296,9.652234,Nigeria,NG,Benue,minor,,
Warji,11.17756,9.752414,Nigeria,NG,Bauchi,minor,,
Madobi,11.777248,8.288012,Nigeria,NG,Kano,minor,,
Onyedega,6.882095,6.675847,Nigeria,NG,Kogi,minor,,
Lau,9.208269,11.27541,Nigeria,NG,Taraba,minor,,
Bwari,9.279946,7.380449,Nigeria,NG,Federal Capital Territory,minor,,
Tudun Wada,11.24848,8.40109,Nigeria,NG,Kano,minor,,
Zakirai,12.100326,8.885244,Nigeria,NG,Kano,minor,,
Enugu-Ezike,6.982703,7.455343,Nigeria,NG,Enugu,minor,,
Urua Inyang,5.023089,7.538947,Nigeria,NG,Akwa Ibom,minor,,
Afikpo,5.892577,7.935336,Nigeria,NG,Ebonyi,minor,,
Abua,4.857626,6.645194,Nigeria,NG,Rivers,minor,,
Kutigi,9.20103,5.594976,Nigeria,NG,Niger,minor,,
Doma,8.393068,8.355436,Nigeria,NG,Nasarawa,minor,,
Azare,10.52583,12.291145,Nigeria,NG,Borno,minor,,
Benisheikh,11.809189,12.491506,Nigeria,NG,Borno,minor,,
Idogbo,6.268124,5.71296,Nigeria,NG,Edo,minor,,
Kanamma,13.099692,12.107899,Nigeria,NG,Yobe,minor,,
Onueke,6.155366,8.037351,Nigeria,NG,Ebonyi,minor,,
Ajegunle,6.45197,3.331147,Nigeria,NG,Lagos,minor,,
Jakusko,12.370934,10.773728,Nigeria,NG,Yobe,minor,,
Igboho,8.837838,3.756282,Nigeria,NG,Oyo,minor,,
Ikem,6.779928,7.714837,Nigeria,NG,Enugu,minor,,
Ipetumodu,7.521521,4.444765,Nigeria,NG,Osun,minor,,
Bukuru,9.793987,8.863967,Nigeria,NG,Plateau,minor,,
Dawakin Tofa,12.10452,8.329988,Nigeria,NG,Kano,minor,,
Dawakin Kudu,11.837271,8.59699,Nigeria,NG,Kano,minor,,
Ode-Ekiti,7.648126,5.549483,Nigeria,NG,Ekiti,minor,,
Abigi,6.486756,4.395314,Nigeria,NG,Ogun,minor,,
Upenekang,4.570635,7.97955,Nigeria,NG,Akwa Ibom,minor,,
Guyuk,9.906629,11.927527,Nigeria,NG,Adamawa,minor,,
Buni Yadi,11.274411,12.008517,Nigeria,NG,Yobe,minor,,
Amaigbo,5.730159,7.115098,Nigeria,NG,Imo,minor,,
Aliade,7.296269,8.482775,Nigeria,NG,Benue,minor,,
Kware,13.219686,5.265963,Nigeria,NG,Sokoto,minor,,
Otun-Ekiti,7.988584,5.122911,Nigeria,NG,Ekiti,minor,,
Ihiala,5.854752,6.859441,Nigeria,NG,Anambra,minor,,
Dutsin-Ma,12.453915,7.497231,Nigeria,NG,Katsina,minor,,
Abat,4.61712,7.866395,Nigeria,NG,Akwa Ibom,minor,,
Ifo,6.814906,3.195182,Nigeria,NG,Ogun,minor,,
Mashi,12.980437,7.947029,Nigeria,NG,Katsina,minor,,
Boje,6.284278,8.920617,Nigeria,NG,Cross River,minor,,
Danja,11.377097,7.560967,Nigeria,NG,Katsina,minor,,
Ogu,4.722474,7.198594,Nigeria,NG,Rivers,minor,,
Jega,12.222195,4.379633,Nigeria,NG,Kebbi,minor,,
Aguata,6.016336,7.087822,Nigeria,NG,Anambra,minor,,
Khaddamari,11.925894,13.230619,Nigeria,NG,Borno,minor,,
Gwadabawa,13.358187,5.238117,Nigeria,NG,Sokoto,minor,,
Ibagwa-Aka,6.918541,7.398953,Nigeria,NG,Enugu,minor,,
Roni,12.658619,8.265047,Nigeria,NG,Jigawa,minor,,
Mallam Fatori,13.674595,13.339517,Nigeria,NG,Borno,minor,,
Kaura,9.668122,8.458255,Nigeria,NG,Kaduna,minor,,
Bakori,11.555591,7.424188,Nigeria,NG,Katsina,minor,,
Ilemona,8.109917,4.660591,Nigeria,NG,Kwara,minor,,
Pankshin,9.325409,9.435196,Nigeria,NG,Plateau,minor,,
Ibokun,7.784919,4.726534,Nigeria,NG,Osun,minor,,
Kibiya,11.528004,8.661078,Nigeria,NG,Kano,minor,,
Dan Musa,12.261568,7.334091,Nigeria,NG,Katsina,minor,,
Mkpat Enin,4.73478,7.748975,Nigeria,NG,Akwa Ibom,minor,,
Odogbolu,6.840351,3.762851,Nigeria,NG,Ogun,minor,,
Otor-Udu,5.453411,5.8693,Nigeria,NG,Delta,minor,,
Kagarko,9.491102,7.697709,Nigeria,NG,Kaduna,minor,,
Uselu,6.384292,5.609839,Nigeria,NG,Edo,minor,,
Kwali,8.883465,7.018575,Nigeria,NG,Federal Capital Territory,minor,,
Kirfi,10.405558,10.404508,Nigeria,NG,Bauchi,minor,,
Batagarawa,12.906105,7.605856,Nigeria,NG,Katsina,minor,,
Nafada,11.095961,11.33261,Nigeria,NG,Gombe,minor,,
Dandume,11.458804,7.126023,Nigeria,NG,Katsina,minor,,
Igarra,7.293655,6.10432,Nigeria,NG,Edo,minor,,
Owu-Isin,8.280898,5.019395,Nigeria,NG,Kwara,minor,,
Apapa,6.4488,3.359008,Nigeria,NG,Lagos,minor,,
Ringim,12.151434,9.162161,Nigeria,NG,Jigawa,minor,,
Zonkwa,9.784534,8.29056,Nigeria,NG,Kaduna,minor,,
Ijebu-Igbo,6.971977,3.999383,Nigeria,NG,Ogun,minor,,
Ogoja,6.658398,8.799227,Nigeria,NG,Cross River,minor,,
Maigana,11.027074,7.938441,Nigeria,NG,Kaduna,minor,,
Ozoro,5.546917,6.226485,Nigeria,NG,Delta,minor,,
Osu,7.585855,4.6226,Nigeria,NG,Osun,minor,,
Abuochiche,6.691323,8.943367,Nigeria,NG,Cross River,minor,,
Awo,7.767642,4.395154,Nigeria,NG,Osun,minor,,
Ejigbo,7.902919,4.314192,Nigeria,NG,Osun,minor,,
Atani,6.012772,6.747685,Nigeria,NG,Anambra,minor,,
Afam,4.790044,7.311874,Nigeria,NG,Rivers,minor,,
Musawa,12.129489,7.670225,Nigeria,NG,Katsina,minor,,
Umuelemai,5.687856,7.243335,Nigeria,NG,Imo,minor,,
Isiala Oboro,5.406325,7.56816,Nigeria,NG,Abia,minor,,
Auchi,7.067562,6.263601,Nigeria,NG,Edo,minor,,
Faskari,11.721079,7.029915,Nigeria,NG,Katsina,minor,,
Idu,5.030053,8.017156,Nigeria,NG,Akwa Ibom,minor,,
Shanga,11.213744,4.579413,Nigeria,NG,Kebbi,minor,,
Akodo,6.437868,3.9309,Nigeria,NG,Lagos,minor,,
Shani,10.218239,12.060595,Nigeria,NG,Borno,minor,,
Akanran,7.281239,4.025528,Nigeria,NG,Oyo,minor,,
Akamkpa,5.31246,8.355152,Nigeria,NG,Cross River,minor,,
Ikara,11.175114,8.224661,Nigeria,NG,Kaduna,minor,,
Magumeri,12.114511,12.826197,Nigeria,NG,Borno,minor,,
Dambam,11.678929,10.707924,Nigeria,NG,Bauchi,minor,,
Nkwoagu Isuochi,5.991247,7.394446,Nigeria,NG,Abia,minor,,
Zango,13.053129,8.485744,Nigeria,NG,Katsina,minor,,
Birnin Magaji,12.559201,6.89459,Nigeria,NG,Zamfara,minor,,
Ajaka,7.174156,6.825348,Nigeria,NG,Kogi,minor,,
Dikenafai,5.770149,7.154735,Nigeria,NG,Imo,minor,,
Enwang,4.656429,8.25206,Nigeria,NG,Akwa Ibom,minor,,
Umunze,5.966943,7.236643,Nigeria,NG,Anambra,minor,,
Bara,10.936048,11.682415,Nigeria,NG,Yobe,minor,,
Naka,7.583305,8.204399,Nigeria,NG,Benue,minor,,
Omu-Aran,8.138568,5.102601,Nigeria,NG,Kwara,minor,,
Tureta,12.593667,5.543906,Nigeria,NG,Sokoto,minor,,
Ikole-Ekiti,7.791481,5.508652,Nigeria,NG,Ekiti,minor,,
Rumuodomaya,4.893332,7.00228,Nigeria,NG,Rivers,minor,,
Maru,12.333595,6.40372,Nigeria,NG,Zamfara,minor,,
Miga,12.238798,9.713617,Nigeria,NG,Jigawa,minor,,
Adogo,7.510043,6.479796,Nigeria,NG,Kogi,minor,,
Patani,5.228848,6.191387,Nigeria,NG,Delta,minor,,
Sumaila,11.53011,8.955929,Nigeria,NG,Kano,minor,,
Bangi,10.83368,5.826883,Nigeria,NG,Niger,minor,,
Birnin Kudu,11.452066,9.478555,Nigeria,NG,Jigawa,minor,,
Isiokpo,5.002434,6.87262,Nigeria,NG,Rivers,minor,,
Oke-Agbe,7.643141,5.759433,Nigeria,NG,Ondo,minor,,
Iye-Ekiti,7.954573,5.233143,Nigeria,NG,Ekiti,minor,,
Ezzamgbo,6.398949,7.961553,Nigeria,NG,Ebonyi,minor,,
Ita-Ogbolu,7.368376,5.246839,Nigeria,NG,Ondo,minor,,
Tsanyawa,12.295591,7.986538,Nigeria,NG,Kano,minor,,
Ebem Ohafia,5.631081,7.830242,Nigeria,NG,Abia,minor,,
Gwantu,9.228989,8.458075,Nigeria,NG,Kaduna,minor,,
Silame,13.039208,4.845932,Nigeria,NG,Sokoto,minor,,
Nnewi,6.019625,6.917287,Nigeria,NG,Anambra,minor,,
Odot,4.830953,8.038395,Nigeria,NG,Akwa Ibom,minor,,
Konduga,11.653312,13.41787,Nigeria,NG,Borno,minor,,
Atan,6.894561,4.007146,Nigeria,NG,Ogun,minor,,
Jajimaji,12.898499,10.80688,Nigeria,NG,Yobe,minor,,
Itu,5.201311,7.983728,Nigeria,NG,Akwa Ibom,minor,,
Itori,6.931231,3.221466,Nigeria,NG,Ogun,minor,,
Dengi,9.368723,9.962233,Nigeria,NG,Plateau,minor,,
Akpet Central,5.621048,8.101628,Nigeria,NG,Cross River,minor,,
Ibiaku Ntok Okpo,5.308572,7.711059,Nigeria,NG,Akwa Ibom,minor,,
Ebute-Metta,6.487988,3.381662,Nigeria,NG,Lagos,minor,,
Ogbe-Ijoh,5.483243,5.734605,Nigeria,NG,Delta,minor,,
Ogbede,6.672952,7.374409,Nigeria,NG,Enugu,minor,,
Bodinga,12.84413,5.150007,Nigeria,NG,Sokoto,minor,,
Bode Saadu,8.938996,4.78227,Nigeria,NG,Kwara,minor,,
Ifon,6.929729,5.773681,Nigeria,NG,Ondo,minor,,
Obollo-Afor,6.916245,7.518485,Nigeria,NG,Enugu,minor,,
Isiaka,5.862653,7.546215,Nigeria,NG,Ebonyi,minor,,
Giade,11.390833,10.199874,Nigeria,NG,Bauchi,minor,,
Maikunkele,9.684301,6.478895,Nigeria,NG,Niger,minor,,
Koguna,12.381368,8.457325,Nigeria,NG,Kano,minor,,
Tse-Agberagba,7.076678,8.665508,Nigeria,NG,Benue,minor,,
Kwoi,9.457447,8.006841,Nigeria,NG,Kaduna,minor,,
Mokwa,9.294818,5.054124,Nigeria,NG,Niger,minor,,
Tofa,12.057886,8.273092,Nigeria,NG,Kano,minor,,
Tafawa Balewa,9.760172,9.551724,Nigeria,NG,Bauchi,minor,,
Owena,7.194135,5.022645,Nigeria,NG,Ondo,minor,,
Ogbia,4.688364,6.315254,Nigeria,NG,Bayelsa,minor,,
Ajalli,6.044268,7.208645,Nigeria,NG,Anambra,minor,,
Tambuwal,12.405925,4.646053,Nigeria,NG,Sokoto,minor,,
Karaye,11.783603,8.01504,Nigeria,NG,Kano,minor,,
Buguma,4.736141,6.862362,Nigeria,NG,Rivers,minor,,
Makurdi,7.733746,8.52139,Nigeria,NG,Benue,admin,,
Nteje,6.268102,6.920618,Nigeria,NG,Anambra,minor,,
Wudil,11.809374,8.844222,Nigeria,NG,Kano,minor,,
Jahun,12.076292,9.627572,Nigeria,NG,Jigawa,minor,,
Offa,8.149114,4.720744,Nigeria,NG,Kwara,minor,,
Geidam,12.894389,11.926491,Nigeria,NG,Yobe,minor,,
Otan Ayegbaju,7.947834,4.788364,Nigeria,NG,Osun,minor,,
Taura,12.227122,9.283062,Nigeria,NG,Jigawa,minor,,
Dass,10.00065,9.515963,Nigeria,NG,Bauchi,minor,,
Kuta,9.868638,6.710425,Nigeria,NG,Niger,minor,,
Malam Madori,12.564729,9.880839,Nigeria,NG,Jigawa,minor,,
Kisi,9.082971,3.851965,Nigeria,NG,Oyo,minor,,
Itu,5.463951,7.330776,Nigeria,NG,Imo,minor,,
Otuocha,6.339078,6.846358,Nigeria,NG,Anambra,minor,,
Okeho,8.033856,3.347589,Nigeria,NG,Oyo,minor,,
Oke-Ila,7.950696,4.988736,Nigeria,NG,Osun,minor,,
Michika,10.620424,13.389283,Nigeria,NG,Adamawa,minor,,
Ile-Ogbo,7.621292,4.245314,Nigeria,NG,Osun,minor,,
Katagum,12.285071,10.350265,Nigeria,NG,Bauchi,minor,,
Gaya,11.860637,9.002702,Nigeria,NG,Kano,minor,,
Afaha Ikot Ebak,5.125042,7.657165,Nigeria,NG,Akwa Ibom,minor,,
Kwaya Kusar,10.502964,11.843311,Nigeria,NG,Borno,minor,,
Kwale,5.707729,6.434017,Nigeria,NG,Delta,minor,,
Okada,6.734686,5.390833,Nigeria,NG,Edo,minor,,
Oleh,5.461857,6.206239,Nigeria,NG,Delta,minor,,
Gada,13.754303,5.657227,Nigeria,NG,Sokoto,minor,,
Emure-Ekiti,7.436356,5.45925,Nigeria,NG,Ekiti,minor,,
Enagi,9.127336,5.543868,Nigeria,NG,Niger,minor,,
Afon,8.313129,4.527384,Nigeria,NG,Kwara,minor,,
Okrika,4.742154,7.083678,Nigeria,NG,Rivers,minor,,
Twon-Brass,4.312306,6.240906,Nigeria,NG,Bayelsa,minor,,
Nembe,4.536734,6.403325,Nigeria,NG,Bayelsa,minor,,
Kosubosu,9.551068,3.228411,Nigeria,NG,Kwara,minor,,
Donga,7.721745,10.045261,Nigeria,NG,Taraba,minor,,
Etinan,4.842617,7.852523,Nigeria,NG,Akwa Ibom,minor,,
Okitipupa,6.505503,4.779565,Nigeria,NG,Ondo,minor,,
Ede,7.736347,4.435363,Nigeria,NG,Osun,minor,,
Bebeji,11.667684,8.261997,Nigeria,NG,Kano,minor,,
Sakaba,11.06513,5.596099,Nigeria,NG,Kebbi,minor,,
Okuku,8.018073,4.67253,Nigeria,NG,Osun,minor,,
Rogo,11.552374,7.822532,Nigeria,NG,Kano,minor,,
Daura,13.032992,8.32351,Nigeria,NG,Katsina,minor,,
Achalla,6.334651,6.98863,Nigeria,NG,Anambra,minor,,
Kauru,10.576008,8.150956,Nigeria,NG,Kaduna,minor,,
Nwaorieubi,5.581818,7.016505,Nigeria,NG,Imo,minor,,
Umuneke-Ngor,5.335579,7.151869,Nigeria,NG,Imo,minor,,
Kiyawa,11.784422,9.606904,Nigeria,NG,Jigawa,minor,,
Bomadi,5.160727,5.923747,Nigeria,NG,Delta,minor,,
Ikot Akpa Nkuk,4.872307,7.564585,Nigeria,NG,Akwa Ibom,minor,,
Mgboko,5.169552,7.358621,Nigeria,NG,Abia,minor,,
Kafur,11.645892,7.690677,Nigeria,NG,Katsina,minor,,
Ikire,7.372414,4.187394,Nigeria,NG,Osun,minor,,
Kalgo,12.326664,4.2004,Nigeria,NG,Kebbi,minor,,
Wamba,8.941532,8.603154,Nigeria,NG,Nasarawa,minor,,
Wamako,13.030541,5.104326,Nigeria,NG,Sokoto,minor,,
Minjibir,12.177652,8.657818,Nigeria,NG,Kano,minor,,
