city,lat,lng,country,iso2,admin,capital,population,population_proper
Panama City,8.966667,-79.533333,Panama,PA,Panamá,primary,1281000,408168
Colón,9.354507,-79.900109,Panama,PA,Colón,admin,204000,136976
David,8.427389,-82.425286,Panama,PA,Chiriquí,admin,110037,82859
Balboa,8.95,-79.566667,Panama,PA,Panamá,,62882,62882
Santiago,8.100366,-80.972168,Panama,PA,Veraguas,admin,45955,45355
Puerto Chitré,7.983333,-80.4,Panama,PA,Herrera,,44082,43966
Penonomé,8.513662,-80.356318,Panama,PA,Coclé,admin,28766,12394
Puerto Armuelles,8.272428,-82.861086,Panama,PA,Chiriquí,minor,27147,18795
Las Tablas,7.764719,-80.274832,Panama,PA,Los Santos,admin,11358,8570
Bocas del Toro,9.33603,-82.240809,Panama,PA,Bocas del Toro,admin,9883,3085
Almirante,9.291456,-82.395624,Panama,PA,Bocas del Toro,minor,8114,6771
La Palma,8.406085,-78.139642,Panama,PA,Darién,admin,1845,1845
Jaqué,7.52035,-78.167884,Panama,PA,Darién,minor,1357,553
El Porvenir,9.555841,-78.945409,Panama,PA,Kuna Yala,admin,10,10
Agua Fría Número Uno,8.858387,-78.197497,Panama,PA,Darién,minor,,
Paredón Arriba,8.459767,-81.195917,Panama,PA,Ngöbe-Buglé,minor,,
Unión Chocó,8.098938,-77.608532,Panama,PA,Emberá-Wounaan,admin,,
La Punta,7.557022,-81.191086,Panama,PA,Veraguas,minor,,
San Lorenzo,8.305608,-82.101144,Panama,PA,Chiriquí,minor,,
Corozal,8.197819,-77.600373,Panama,PA,Emberá-Wounaan,minor,,
Bajos de Güera,7.543603,-80.625051,Panama,PA,Los Santos,minor,,
Breñón,8.624905,-82.812766,Panama,PA,Chiriquí,minor,,
Cabecera de Cerro Puerco,8.318565,-81.759506,Panama,PA,Ngöbe-Buglé,minor,,
El Porvenir,8.229187,-81.832784,Panama,PA,Chiriquí,minor,,
Santa Lucia,8.231232,-81.826128,Panama,PA,Chiriquí,minor,,
La Chorrera,8.880278,-79.783333,Panama,PA,Panamá Oeste,admin,,
Norteño,9.00308,-82.314755,Panama,PA,,minor,,
Los Llanitos,8.597869,-80.095025,Panama,PA,Panamá Oeste,minor,,
La Trinidad,7.914571,-80.703322,Panama,PA,Herrera,minor,,
Quebrada de Loro,8.359236,-81.927245,Panama,PA,Ngöbe-Buglé,minor,,
Atalaya,8.042129,-80.925279,Panama,PA,Veraguas,minor,,
Cabuya,8.574724,-79.927144,Panama,PA,Panamá Oeste,minor,,
Chacarero,8.488995,-82.598335,Panama,PA,Chiriquí,minor,,
Las Cabras,7.875613,-80.549121,Panama,PA,Herrera,minor,,
Ocú,7.940515,-80.779362,Panama,PA,Herrera,minor,,
El Toro,7.751103,-80.869426,Panama,PA,Herrera,minor,,
El Guásimo,7.806397,-80.529914,Panama,PA,Los Santos,minor,,
Leones Arriba,7.752999,-81.121239,Panama,PA,Veraguas,minor,,
El Barrero,7.933443,-80.513582,Panama,PA,Herrera,minor,,
Palenque,9.569702,-79.363407,Panama,PA,Colón,minor,,
La Mesa,8.147071,-81.181137,Panama,PA,Veraguas,minor,,
El Potrero,8.376917,-80.794336,Panama,PA,Veraguas,minor,,
La Mesa,7.656705,-80.617941,Panama,PA,Los Santos,minor,,
Las Uvas,8.459368,-80.000749,Panama,PA,Panamá Oeste,minor,,
Potuga,8.063171,-80.622707,Panama,PA,Herrera,minor,,
Potrero de Caña,8.293455,-81.699031,Panama,PA,,minor,,
El Bebedero,7.409718,-80.45641,Panama,PA,Los Santos,minor,,
Brujas,8.585362,-78.530077,Panama,PA,Panamá,minor,,
Cauchero,9.14915,-82.266346,Panama,PA,Bocas del Toro,minor,,
Nuario,7.530465,-80.326923,Panama,PA,Los Santos,minor,,
Río Luís,8.683615,-81.216079,Panama,PA,Veraguas,minor,,
Agua Buena,7.834645,-80.394046,Panama,PA,Los Santos,minor,,
Puerto Vidal,8.048337,-81.604987,Panama,PA,Veraguas,minor,,
Buabidi,8.474567,-81.698267,Panama,PA,Ngöbe-Buglé,admin,,
Antón,8.397335,-80.260631,Panama,PA,Coclé,minor,,
Santa Rosa Número Uno,8.864593,-80.099228,Panama,PA,Panamá Oeste,minor,,
San Andrés,8.602604,-82.725884,Panama,PA,Chiriquí,minor,,
Nueva Arenosa,8.869444,-79.994722,Panama,PA,Panamá Oeste,minor,,
Canto del Llano,8.12472,-80.963739,Panama,PA,Veraguas,minor,,
El Guabo,9.078424,-80.083161,Panama,PA,Colón,minor,,
El Muñoz,7.675821,-80.321298,Panama,PA,Los Santos,minor,,
Cedro Arriba,7.780974,-80.530571,Panama,PA,Los Santos,minor,,
Villa Lourdes,7.81141,-80.470289,Panama,PA,Los Santos,minor,,
Cativá,9.36242,-79.83569,Panama,PA,Colón,minor,,
Guararé Arriba,7.800233,-80.35983,Panama,PA,Los Santos,minor,,
San Juan Bautista,7.960995,-80.412827,Panama,PA,Herrera,minor,,
Pedasí,7.5287,-80.027708,Panama,PA,Los Santos,minor,,
Santa Ana Arriba,7.933002,-80.363691,Panama,PA,Los Santos,minor,,
El Tejar,8.429733,-82.572943,Panama,PA,Chiriquí,minor,,
Llano de Piedra,7.659718,-80.563467,Panama,PA,Los Santos,minor,,
Bijagual,8.503208,-82.334043,Panama,PA,Chiriquí,minor,,
Veracruz,8.889883,-79.626032,Panama,PA,Panamá Oeste,minor,,
Nuevo Emperador,9.002734,-79.731413,Panama,PA,Panamá Oeste,minor,,
Cañita,9.215663,-78.889732,Panama,PA,Panamá,minor,,
Alanje,8.39791,-82.559467,Panama,PA,Chiriquí,minor,,
Cañas Gordas,8.743088,-82.912748,Panama,PA,Chiriquí,minor,,
Puerto Caimito,8.870223,-79.714234,Panama,PA,Panamá Oeste,minor,,
Hato Juli,8.349809,-81.845033,Panama,PA,Ngöbe-Buglé,minor,,
Cirí de Los Sotos,8.972058,-80.092087,Panama,PA,Panamá Oeste,minor,,
Kusapín,9.178229,-81.884842,Panama,PA,Ngöbe-Buglé,minor,,
Puerto Obaldía,8.662127,-77.421517,Panama,PA,Kuna Yala,minor,,
Puerto Pilón,9.363162,-79.793335,Panama,PA,Colón,minor,,
Salto Dupí,8.35146,-81.886592,Panama,PA,Ngöbe-Buglé,minor,,
San Carlos,8.473227,-79.961039,Panama,PA,Panamá Oeste,minor,,
San Carlos,8.516631,-82.509062,Panama,PA,Chiriquí,minor,,
La Encantada,9.087026,-80.191581,Panama,PA,Colón,minor,,
Llano Grande,8.638174,-80.438481,Panama,PA,Coclé,minor,,
Llano Grande,8.450533,-80.226758,Panama,PA,Coclé,minor,,
Sabana Grande,7.835429,-80.364904,Panama,PA,Los Santos,minor,,
Los Ángeles,7.884216,-80.357719,Panama,PA,Los Santos,minor,,
Santo Tomás,8.389585,-82.65058,Panama,PA,Chiriquí,minor,,
Viento Frío,9.578906,-79.411652,Panama,PA,Colón,minor,,
Ave María,7.324808,-80.453615,Panama,PA,Los Santos,minor,,
Chimán,8.69125,-78.635696,Panama,PA,Panamá,minor,,
La Laguna,8.338824,-80.729489,Panama,PA,Veraguas,minor,,
Sorá,8.631912,-80.008881,Panama,PA,Panamá Oeste,minor,,
Sortova,8.546418,-82.651696,Panama,PA,Chiriquí,minor,,
Toza,8.345424,-80.640116,Panama,PA,Coclé,minor,,
Chitré,7.960823,-80.429437,Panama,PA,Herrera,admin,,
Lídice,8.750374,-79.907113,Panama,PA,Panamá Oeste,minor,,
Coclé,8.45601,-80.428994,Panama,PA,Coclé,minor,,
Coclecito,8.808174,-80.556069,Panama,PA,Colón,minor,,
Coclé del Norte,9.066851,-80.569484,Panama,PA,Colón,minor,,
Pitaloza Arriba,7.642157,-80.667877,Panama,PA,Herrera,minor,,
Camogantí,8.038802,-77.890413,Panama,PA,Darién,minor,,
Cerro Pelado,8.162472,-81.539174,Panama,PA,Veraguas,minor,,
San Miguel,8.452356,-78.936943,Panama,PA,Panamá,minor,,
Piña,9.271336,-80.043185,Panama,PA,Colón,minor,,
Peñas Chatas,8.01502,-80.803661,Panama,PA,Herrera,minor,,
San Bartolo,8.210635,-81.275715,Panama,PA,Veraguas,minor,,
Nombre de Dios,9.579372,-79.471094,Panama,PA,Colón,minor,,
Las Lajas,8.241845,-81.869314,Panama,PA,Chiriquí,minor,,
Los Naranjos,8.792096,-82.446648,Panama,PA,Chiriquí,minor,,
La Ensenada,8.362272,-78.84938,Panama,PA,Panamá,minor,,
La Peña,8.127842,-81.026927,Panama,PA,Veraguas,minor,,
Lajas Adentro,8.249809,-81.877793,Panama,PA,Chiriquí,minor,,
Quebrada de Oro,8.037059,-81.393978,Panama,PA,Veraguas,minor,,
El Cañafístulo,7.617684,-80.233217,Panama,PA,Los Santos,minor,,
Los Asientos,7.516557,-80.135206,Panama,PA,Los Santos,minor,,
Montijo,7.988582,-81.056429,Panama,PA,Veraguas,minor,,
Santa María,8.111427,-80.665824,Panama,PA,Herrera,minor,,
Boquerón,8.244143,-80.858969,Panama,PA,Veraguas,minor,,
San Francisco,8.246522,-80.974721,Panama,PA,Veraguas,minor,,
Tucutí,7.927944,-77.945622,Panama,PA,Darién,minor,,
Cacique,9.608977,-79.616669,Panama,PA,Colón,minor,,
San José,8.372609,-81.404862,Panama,PA,Veraguas,minor,,
San José,8.467043,-80.805136,Panama,PA,Veraguas,minor,,
Rámbala,8.920462,-82.180599,Panama,PA,Bocas del Toro,minor,,
Pueblo Nuevo,8.884943,-82.200636,Panama,PA,Ngöbe-Buglé,minor,,
El Copé,8.437727,-80.679291,Panama,PA,Coclé,minor,,
Natá,8.33209,-80.519687,Panama,PA,Coclé,minor,,
La Esperanza,8.403443,-82.791966,Panama,PA,Chiriquí,minor,,
La Esmeralda,8.264506,-78.928011,Panama,PA,Panamá,minor,,
Guadalupe,8.854523,-79.81408,Panama,PA,Panamá Oeste,minor,,
Las Ollas Arriba,8.806748,-79.913108,Panama,PA,Panamá Oeste,minor,,
El Copé,8.621107,-80.579039,Panama,PA,Coclé,minor,,
Los Cerros de Paja,7.718211,-80.67273,Panama,PA,Herrera,minor,,
Lajas Blancas,8.414815,-77.811608,Panama,PA,Emberá-Wounaan,minor,,
Monjarás,8.369422,-80.866667,Panama,PA,Veraguas,minor,,
El Pedregoso,7.936421,-80.638074,Panama,PA,Herrera,minor,,
El Pedregoso,7.691728,-80.327931,Panama,PA,Los Santos,minor,,
Bahía Honda,7.848345,-80.676496,Panama,PA,Herrera,minor,,
Bahía Azul,9.135005,-81.888388,Panama,PA,Ngöbe-Buglé,minor,,
Bahía Honda,7.705171,-80.453416,Panama,PA,Los Santos,minor,,
Bugaba,8.482553,-82.619914,Panama,PA,Chiriquí,minor,,
El Carate,7.731238,-80.296915,Panama,PA,Los Santos,minor,,
El Calabacito,7.718432,-80.597572,Panama,PA,Herrera,minor,,
Chiriquí,8.39291,-82.319926,Panama,PA,Chiriquí,minor,,
Cascabel,8.526804,-81.874033,Panama,PA,Ngöbe-Buglé,minor,,
Los Olivos,7.915895,-80.488844,Panama,PA,Los Santos,minor,,
Llano Bonito,7.976373,-80.416459,Panama,PA,Herrera,minor,,
El Llano,9.211989,-78.959155,Panama,PA,Panamá,minor,,
Isla Grande,9.628556,-79.565151,Panama,PA,Colón,minor,,
Pocrí,7.658162,-80.121191,Panama,PA,Los Santos,minor,,
Pocrí,8.258141,-80.55,Panama,PA,Coclé,minor,,
Los Anastacios,8.52927,-82.421056,Panama,PA,Chiriquí,minor,,
Arco Iris,9.334039,-79.89172,Panama,PA,Colón,minor,,
Gómez,8.560848,-82.741418,Panama,PA,Chiriquí,minor,,
Boca del Guásimo,9.050526,-80.328777,Panama,PA,Colón,minor,,
Caldera,8.649066,-82.380578,Panama,PA,Chiriquí,minor,,
Tobobe,9.121107,-81.824707,Panama,PA,Ngöbe-Buglé,minor,,
El Puerto,8.212383,-81.807973,Panama,PA,Chiriquí,minor,,
Lolá,8.093258,-81.471634,Panama,PA,Veraguas,minor,,
Mariabé,7.582655,-80.0661,Panama,PA,Los Santos,minor,,
Guayabito,8.539493,-81.48225,Panama,PA,Ngöbe-Buglé,minor,,
Dos Ríos Abajo,8.528343,-82.386769,Panama,PA,Chiriquí,minor,,
Chepigana,8.28628,-78.051847,Panama,PA,Darién,minor,,
Chiriquí Grande,8.945569,-82.11769,Panama,PA,Bocas del Toro,minor,,
Cerro Largo,7.833774,-80.831681,Panama,PA,Herrera,minor,,
Llano Abajo,7.78598,-80.410598,Panama,PA,Los Santos,minor,,
Paraíso,7.685098,-80.160819,Panama,PA,Los Santos,minor,,
Limón,9.254777,-79.814103,Panama,PA,Colón,minor,,
Bajo Solis,8.347515,-81.529115,Panama,PA,Chiriquí,minor,,
La Loma,7.437083,-80.891178,Panama,PA,Veraguas,minor,,
El Rincón,8.18422,-81.433333,Panama,PA,Veraguas,minor,,
Arenosa,9.039775,-79.951278,Panama,PA,Panamá Oeste,minor,,
Cerro Banco,8.457966,-82.030808,Panama,PA,Ngöbe-Buglé,minor,,
La Colorada,8.013189,-80.985896,Panama,PA,Veraguas,minor,,
Gobea,9.159142,-80.250639,Panama,PA,Colón,minor,,
Calidonia,7.959167,-81.389722,Panama,PA,Veraguas,minor,,
El Potrero,8.521463,-80.516814,Panama,PA,Coclé,minor,,
Cerro Viejo,8.253492,-81.576583,Panama,PA,Chiriquí,minor,,
Salud,9.198413,-80.131858,Panama,PA,Colón,minor,,
El Cacao,7.445698,-80.409377,Panama,PA,Los Santos,minor,,
Paritilla,7.62848,-80.172399,Panama,PA,Los Santos,minor,,
La Laja,7.731017,-80.252978,Panama,PA,Los Santos,minor,,
La Garceana,7.93708,-81.016433,Panama,PA,Veraguas,minor,,
Ancón,8.95731,-79.555805,Panama,PA,Panamá,minor,,
El Valle,8.600533,-80.134575,Panama,PA,Coclé,minor,,
Oma,8.350191,-81.801771,Panama,PA,Ngöbe-Buglé,minor,,
El Limón,8.058054,-80.77289,Panama,PA,Herrera,minor,,
Gualaca,8.530062,-82.299593,Panama,PA,Chiriquí,minor,,
Santa Fé,8.510627,-81.078025,Panama,PA,Veraguas,minor,,
Santa Fé,8.655247,-78.161404,Panama,PA,Darién,minor,,
Cañaveral,8.517001,-80.429159,Panama,PA,Coclé,minor,,
San José,7.673946,-80.244375,Panama,PA,Los Santos,minor,,
Tinajas,8.552808,-82.459626,Panama,PA,Chiriquí,minor,,
Guabal,8.574658,-82.537298,Panama,PA,Chiriquí,minor,,
Las Huacas del Quije,8.467022,-80.750888,Panama,PA,Coclé,minor,,
Los Valles,8.44851,-81.198861,Panama,PA,Veraguas,minor,,
Los Pozos,7.783002,-80.645243,Panama,PA,Herrera,minor,,
San Juan,8.27724,-81.993451,Panama,PA,Chiriquí,minor,,
San Juan,8.303112,-81.015752,Panama,PA,Veraguas,minor,,
Limón de Tijeras,7.817561,-80.913355,Panama,PA,Herrera,minor,,
Santa Catalina,8.78193,-81.3279,Panama,PA,Ngöbe-Buglé,minor,,
Ciricito Abajo,8.799496,-80.077474,Panama,PA,Panamá Oeste,minor,,
Palmas Bellas,9.220021,-80.083689,Panama,PA,Colón,minor,,
Soloy,8.489734,-82.071361,Panama,PA,Ngöbe-Buglé,minor,,
Remedios,8.224357,-81.827465,Panama,PA,Chiriquí,minor,,
Churuquita Chiquita,8.575548,-80.27161,Panama,PA,Coclé,minor,,
Cabuya,8.543961,-80.163112,Panama,PA,Coclé,minor,,
Lajas de Tolé,8.16994,-81.696542,Panama,PA,Chiriquí,minor,,
Chepillo,8.95131,-79.13146,Panama,PA,Panamá,minor,,
Chicá,8.661614,-79.941756,Panama,PA,Panamá Oeste,minor,,
Lajero Arriba,8.290605,-81.770472,Panama,PA,Ngöbe-Buglé,minor,,
El Real,8.109913,-77.734384,Panama,PA,Darién,minor,,
El Marañón,8.035817,-81.214893,Panama,PA,Veraguas,minor,,
Santa Rosa,8.599582,-82.684889,Panama,PA,Chiriquí,minor,,
Santa Cruz,8.232187,-81.913227,Panama,PA,Chiriquí,minor,,
Palmira,7.663468,-80.357278,Panama,PA,Los Santos,minor,,
Palmira,9.543592,-79.219463,Panama,PA,Colón,minor,,
Rincón,8.463736,-82.279514,Panama,PA,Chiriquí,minor,,
Chupá,7.8,-80.574512,Panama,PA,Los Santos,minor,,
Camarón Arriba,8.383239,-81.993451,Panama,PA,Ngöbe-Buglé,minor,,
La Carrillo,7.969535,-80.883772,Panama,PA,Veraguas,minor,,
Cucunatí,8.57508,-78.25671,Panama,PA,Darién,minor,,
Cermeño,8.740819,-79.852993,Panama,PA,Panamá Oeste,minor,,
Guaca Arriba,8.537326,-82.492814,Panama,PA,Chiriquí,minor,,
Los Corotúes,8.420145,-81.10421,Panama,PA,Veraguas,minor,,
La Tiza,7.751103,-80.292156,Panama,PA,Los Santos,minor,,
Las Lomas,8.429271,-82.387426,Panama,PA,Chiriquí,minor,,
Las Palmas,8.135639,-81.456742,Panama,PA,Veraguas,minor,,
Las Palmas,7.678811,-80.495699,Panama,PA,Los Santos,minor,,
Bajo Corral,7.604632,-80.260163,Panama,PA,Los Santos,minor,,
Llano de Catival,7.633116,-80.998258,Panama,PA,Veraguas,minor,,
La Estrella,8.515715,-82.672122,Panama,PA,Chiriquí,minor,,
Jingurudó,7.879616,-78.076885,Panama,PA,Emberá-Wounaan,minor,,
La Miel,7.556066,-80.332343,Panama,PA,Los Santos,minor,,
Garachiné,8.060811,-78.375144,Panama,PA,Darién,minor,,
La Pintada,8.592988,-80.443489,Panama,PA,Coclé,minor,,
Nuestro Amo,8.444849,-80.589343,Panama,PA,Coclé,minor,,
Potrerillos Abajo,8.63978,-82.485595,Panama,PA,Chiriquí,minor,,
La Yeguada,8.430598,-80.857515,Panama,PA,Veraguas,minor,,
Río Sereno,8.817409,-82.857311,Panama,PA,Chiriquí,minor,,
Cerro Iglesias,8.285228,-81.798038,Panama,PA,Ngöbe-Buglé,minor,,
Zangüengas,8.956094,-79.870373,Panama,PA,Panamá Oeste,minor,,
Horconcitos,8.311416,-82.151019,Panama,PA,Chiriquí,minor,,
Chumical,7.844816,-80.726271,Panama,PA,Herrera,minor,,
Paya,7.900709,-77.389646,Panama,PA,Darién,minor,,
Divalá,8.410659,-82.713316,Panama,PA,Chiriquí,minor,,
Punta Laurel,9.141004,-82.127169,Panama,PA,Bocas del Toro,minor,,
La Raya de Santa María,8.164288,-80.821426,Panama,PA,Veraguas,minor,,
Flores,7.481568,-80.40695,Panama,PA,Los Santos,minor,,
Miramar,8.99482,-82.241473,Panama,PA,Bocas del Toro,minor,,
Miramar,9.570168,-79.338812,Panama,PA,Colón,minor,,
Las Margaritas,9.184265,-79.087297,Panama,PA,Panamá,minor,,
La Soledad,7.878991,-81.27611,Panama,PA,Veraguas,minor,,
Bejuco,8.600375,-79.889882,Panama,PA,Panamá Oeste,minor,,
Río Grande,8.426791,-80.484573,Panama,PA,Coclé,minor,,
Río Grande,7.709682,-81.344238,Panama,PA,Veraguas,minor,,
La Arena,7.96766,-80.465233,Panama,PA,Herrera,minor,,
Escobal,9.143726,-79.964391,Panama,PA,Colón,minor,,
Guayabal,8.621929,-82.579348,Panama,PA,Chiriquí,minor,,
El Espino,8.477606,-80.012796,Panama,PA,Panamá Oeste,minor,,
El Espino,8.837947,-79.84925,Panama,PA,Panamá Oeste,minor,,
La Pasera,7.797574,-80.303422,Panama,PA,Los Santos,minor,,
Unión Santeña,8.835254,-78.651043,Panama,PA,Panamá,minor,,
Los Santos,7.933333,-80.416667,Panama,PA,Los Santos,minor,,
Contadora,8.624826,-79.037482,Panama,PA,Panamá,minor,,
El Coclá,8.321426,-80.920694,Panama,PA,Veraguas,minor,,
El Cocal,7.736973,-80.279803,Panama,PA,Los Santos,minor,,
Pedro González,8.409181,-79.108233,Panama,PA,Panamá,minor,,
Piedras Gordas,8.637774,-80.510242,Panama,PA,Coclé,minor,,
El Higo,8.447305,-80.036028,Panama,PA,Panamá Oeste,minor,,
Villa Rosario,8.773788,-79.875465,Panama,PA,Panamá Oeste,minor,,
Playa Leona,8.783894,-79.775466,Panama,PA,Panamá Oeste,minor,,
Los Cerritos,7.797463,-80.610713,Panama,PA,Herrera,minor,,
Río Congo,8.966661,-79.761047,Panama,PA,Panamá Oeste,minor,,
Bongo Arriba,8.588806,-82.622533,Panama,PA,Chiriquí,minor,,
Caimito,8.811426,-79.947377,Panama,PA,Panamá Oeste,minor,,
Aguadulce,8.241829,-80.546092,Panama,PA,Coclé,minor,,
El Chirú,8.398756,-80.187208,Panama,PA,Coclé,minor,,
Sajalices,8.683708,-79.87247,Panama,PA,Panamá Oeste,minor,,
Chepo,7.725613,-80.822952,Panama,PA,Herrera,minor,,
Pedregal,8.365865,-82.435244,Panama,PA,Chiriquí,minor,,
Boca de Balsa,8.525887,-82.033942,Panama,PA,Ngöbe-Buglé,minor,,
Corozal,8.077123,-81.439897,Panama,PA,Veraguas,minor,,
Güibale,8.51225,-81.362568,Panama,PA,Ngöbe-Buglé,minor,,
Las Minas,7.795809,-80.745699,Panama,PA,Herrera,minor,,
Tortí,8.921322,-78.405456,Panama,PA,Panamá,minor,,
Boró,8.169328,-81.30071,Panama,PA,Veraguas,minor,,
La Mesa,9.173081,-79.27401,Panama,PA,Panamá,minor,,
Progreso,8.450024,-82.834874,Panama,PA,Chiriquí,minor,,
Nuevo San Juan,9.222052,-79.666019,Panama,PA,Colón,minor,,
Guarumal,7.794044,-81.259044,Panama,PA,Veraguas,minor,,
Calabacito,8.24817,-81.081869,Panama,PA,Veraguas,minor,,
Perales,7.774608,-80.324938,Panama,PA,Los Santos,minor,,
Alcalde Díaz,9.120162,-79.556411,Panama,PA,Panamá,minor,,
Sardinilla,9.298279,-79.639559,Panama,PA,Colón,minor,,
Quebrada del Rosario,7.712378,-80.742218,Panama,PA,Herrera,minor,,
Campana,8.71648,-79.892141,Panama,PA,Panamá Oeste,minor,,
Barranco Colorado,8.389372,-80.635464,Panama,PA,Coclé,minor,,
Pacora,9.079372,-79.289974,Panama,PA,Panamá,minor,,
Rincón Hondo,7.844362,-80.603969,Panama,PA,Herrera,minor,,
Peña Blanca,8.461708,-81.678799,Panama,PA,Ngöbe-Buglé,minor,,
El Barrito,7.960588,-80.948012,Panama,PA,Veraguas,minor,,
Paraíso,8.658424,-82.58625,Panama,PA,Chiriquí,minor,,
Arraiján,8.951871,-79.660108,Panama,PA,Panamá Oeste,minor,,
Arosemena,8.970907,-79.966406,Panama,PA,Panamá Oeste,minor,,
Hato Chami,8.442813,-81.771961,Panama,PA,Ngöbe-Buglé,minor,,
Hato Corotú,8.323266,-81.972778,Panama,PA,Ngöbe-Buglé,minor,,
Hato Culantro,8.468469,-81.857144,Panama,PA,Ngöbe-Buglé,minor,,
Mirones,8.557575,-81.725739,Panama,PA,Ngöbe-Buglé,minor,,
Boca del Río Chiriquí,8.845172,-81.572647,Panama,PA,Ngöbe-Buglé,minor,,
Llano Ñopo,8.419957,-81.618652,Panama,PA,Ngöbe-Buglé,minor,,
Bisira,8.895527,-81.853517,Panama,PA,Ngöbe-Buglé,minor,,
Bisvalles,8.182978,-81.220925,Panama,PA,Veraguas,minor,,
Cuoronte,8.674569,-81.785861,Panama,PA,Ngöbe-Buglé,minor,,
Aserrío de Gariché,8.482567,-82.790863,Panama,PA,Chiriquí,minor,,
Yape,8.092985,-77.599751,Panama,PA,Emberá-Wounaan,minor,,
Yaviza,8.152856,-77.69731,Panama,PA,Darién,minor,,
Nuevo Chagres,9.228879,-80.081554,Panama,PA,Colón,minor,,
Nueva Providencia,9.263333,-79.815556,Panama,PA,Colón,minor,,
Nueva Gorgona,8.55,-79.875465,Panama,PA,Panamá Oeste,minor,,
Nuevo Arraiján,8.924527,-79.720036,Panama,PA,Panamá Oeste,minor,,
Monagrillo,7.981789,-80.437636,Panama,PA,Herrera,minor,,
Gonzalo Vásquez,8.41466,-78.456124,Panama,PA,Panamá,minor,,
Santa Rita,8.493073,-80.182979,Panama,PA,Coclé,minor,,
San Pablo Viejo Abajo,8.453385,-82.501791,Panama,PA,Chiriquí,minor,,
San Pablo Nuevo Abajo,8.42558,-82.501735,Panama,PA,Chiriquí,minor,,
Las Huacas,7.901667,-81.140556,Panama,PA,Veraguas,minor,,
Alto de Jesús,8.273249,-81.48277,Panama,PA,Veraguas,minor,,
Pesé,7.901654,-80.616007,Panama,PA,Herrera,minor,,
Guabito,9.489675,-82.612791,Panama,PA,Bocas del Toro,minor,,
El Piro,8.209418,-81.527063,Panama,PA,Veraguas,minor,,
Hato Pilón,8.398132,-81.865249,Panama,PA,Ngöbe-Buglé,minor,,
La Palma,7.68864,-80.196468,Panama,PA,Los Santos,minor,,
Puerto Piña,7.586419,-78.194827,Panama,PA,Darién,minor,,
San Pedro del Espino,8.140105,-81.086628,Panama,PA,Veraguas,minor,,
El Alto,8.511908,-81.036455,Panama,PA,Veraguas,minor,,
Llano Culebra,8.301132,-81.615902,Panama,PA,Chiriquí,minor,,
Sesteadero,7.738846,-80.248538,Panama,PA,Los Santos,minor,,
Cabuya,7.982671,-80.764354,Panama,PA,Herrera,minor,,
Guararé,7.81531,-80.283446,Panama,PA,Los Santos,minor,,
Finca Blanco,8.379791,-82.87385,Panama,PA,Chiriquí,minor,,
Achiote,9.211206,-80.013379,Panama,PA,Colón,minor,,
Llano Grande,7.974057,-80.711026,Panama,PA,Herrera,minor,,
Llano Grande,8.07473,-81.136262,Panama,PA,Veraguas,minor,,
Santa Rita,8.856813,-79.87954,Panama,PA,Panamá Oeste,minor,,
Viguí,8.339208,-81.498226,Panama,PA,Veraguas,minor,,
El Pilón,7.95413,-81.076371,Panama,PA,Veraguas,minor,,
El Picador,8.378031,-81.256209,Panama,PA,Veraguas,minor,,
Cochea Abajo,8.505118,-82.358783,Panama,PA,Chiriquí,minor,,
Mortí,8.841906,-77.979588,Panama,PA,Darién,minor,,
San Marcelo,8.272524,-81.159884,Panama,PA,Veraguas,minor,,
Pinogana,8.113012,-77.688506,Panama,PA,Darién,minor,,
Las Lajas,8.549626,-79.935206,Panama,PA,Panamá Oeste,minor,,
Piedras Gordas,8.524192,-80.911521,Panama,PA,Veraguas,minor,,
Hato Jobo,8.391979,-81.886196,Panama,PA,Ngöbe-Buglé,minor,,
La Enea,7.833333,-80.27417,Panama,PA,Los Santos,minor,,
Vista Alegre,8.927719,-79.702804,Panama,PA,Panamá Oeste,minor,,
Rovira Arriba,8.638217,-82.499646,Panama,PA,Chiriquí,minor,,
María Chiquita,9.43991,-79.754555,Panama,PA,Colón,minor,,
Buena Vista,9.273557,-79.695507,Panama,PA,Colón,minor,,
La Laguna,8.604086,-80.047161,Panama,PA,Panamá Oeste,minor,,
La Laguna,9.044041,-79.842152,Panama,PA,Panamá Oeste,minor,,
El Caño,8.401953,-80.517914,Panama,PA,Coclé,minor,,
Los Ángeles,8.522712,-82.199969,Panama,PA,Chiriquí,minor,,
Tocumen,9.089391,-79.383098,Panama,PA,Panamá,minor,,
Tolé,8.239893,-81.671679,Panama,PA,Chiriquí,minor,,
Santa Marta,8.514061,-82.698697,Panama,PA,Chiriquí,minor,,
Rodeo Viejo,8.112054,-81.316844,Panama,PA,Veraguas,minor,,
San Miguelito,9.050321,-79.470679,Panama,PA,Panamá,minor,,
San Félix,8.290631,-81.867021,Panama,PA,Chiriquí,minor,,
Plaza de Caisán,8.736715,-82.81968,Panama,PA,Chiriquí,minor,,
Valle de La Mina,8.664269,-82.23196,Panama,PA,Chiriquí,minor,,
La Colorada,7.823616,-80.555518,Panama,PA,Los Santos,minor,,
Narganá,9.440564,-78.586592,Panama,PA,Kuna Yala,minor,,
Cañazas,8.320038,-81.211522,Panama,PA,Veraguas,minor,,
La Espigadilla,7.883885,-80.39039,Panama,PA,Los Santos,minor,,
El Coco,8.870091,-79.804148,Panama,PA,Panamá Oeste,minor,,
El Pantano,8.537553,-81.069413,Panama,PA,Veraguas,minor,,
Santo Domingo,8.508031,-82.712955,Panama,PA,Chiriquí,minor,,
Santo Domingo,7.74614,-80.241728,Panama,PA,Los Santos,minor,,
El Peñón,8.35,-80.976195,Panama,PA,Veraguas,minor,,
Tonosí,7.406838,-80.442166,Panama,PA,Los Santos,minor,,
Kankintú,8.843387,-81.814957,Panama,PA,Ngöbe-Buglé,minor,,
Alto Caballero,8.289888,-81.673492,Panama,PA,Ngöbe-Buglé,minor,,
Boquerón,8.505096,-82.570253,Panama,PA,Chiriquí,minor,,
Llano de La Cruz,7.951777,-80.642391,Panama,PA,Herrera,minor,,
Tebario,7.713689,-80.978248,Panama,PA,Veraguas,minor,,
El Macano,7.68489,-80.40309,Panama,PA,Los Santos,minor,,
París,8.050533,-80.554085,Panama,PA,Herrera,minor,,
Parita,7.993934,-80.520972,Panama,PA,Herrera,minor,,
Cuango,9.566667,-79.316667,Panama,PA,Colón,minor,,
Gatú,8.537543,-80.951088,Panama,PA,Veraguas,minor,,
El Líbano,8.616854,-79.834833,Panama,PA,Panamá Oeste,minor,,
Sabanitas,9.342688,-79.809614,Panama,PA,Colón,minor,,
Bágala,8.463988,-82.52617,Panama,PA,Chiriquí,minor,,
Buenos Aires,8.631462,-79.947751,Panama,PA,Panamá Oeste,minor,,
Buenos Aires,8.413838,-81.484397,Panama,PA,Ngöbe-Buglé,minor,,
Monte Lirio,8.789346,-82.828647,Panama,PA,Chiriquí,minor,,
Cerro Iglesias,8.318919,-81.564275,Panama,PA,Chiriquí,minor,,
Loma Yuca,8.718167,-81.404919,Panama,PA,Ngöbe-Buglé,minor,,
Las Trancas,7.733995,-80.373836,Panama,PA,Los Santos,minor,,
Sabana Grande,7.880024,-80.638184,Panama,PA,Herrera,minor,,
Tubualá,8.917505,-77.724822,Panama,PA,Kuna Yala,minor,,
Los Algarrobos,8.108979,-81.013555,Panama,PA,Veraguas,minor,,
El Roble,8.168497,-80.658969,Panama,PA,Coclé,minor,,
Calobre,8.318863,-80.840665,Panama,PA,Veraguas,minor,,
Arenas,7.368652,-80.862682,Panama,PA,Veraguas,minor,,
San Antonio,8.0729,-80.931869,Panama,PA,Veraguas,minor,,
Alto Boquete,8.734578,-82.432127,Panama,PA,Chiriquí,minor,,
Lajamina,7.58587,-80.132118,Panama,PA,Los Santos,minor,,
Toabré,8.651308,-80.320171,Panama,PA,Coclé,minor,,
El Cortezo,7.426605,-80.633111,Panama,PA,Los Santos,minor,,
Leones Arriba,7.765895,-80.845146,Panama,PA,Herrera,minor,,
Oria Arriba,7.505055,-80.205666,Panama,PA,Los Santos,minor,,
Pásiga,8.936466,-78.909167,Panama,PA,Panamá,minor,,
Mendoza,9.014713,-79.850733,Panama,PA,Panamá Oeste,minor,,
Bayamón,7.968169,-78.216477,Panama,PA,Emberá-Wounaan,minor,,
El Capurí,7.725711,-80.643494,Panama,PA,Herrera,minor,,
Volcán,8.772907,-82.638228,Panama,PA,Chiriquí,minor,,
El Cacao,8.761339,-80.01294,Panama,PA,Panamá Oeste,minor,,
Chepo,9.167832,-79.093474,Panama,PA,Panamá,minor,,
Juay,8.284153,-81.946327,Panama,PA,Chiriquí,minor,,
Santa Isabel,9.537177,-79.190791,Panama,PA,Colón,minor,,
Peña Blanca,7.719314,-80.283664,Panama,PA,Los Santos,minor,,
Bella Vista,8.206173,-81.621226,Panama,PA,Chiriquí,minor,,
Ponuga,7.882451,-80.9788,Panama,PA,Veraguas,minor,,
Los Castillos,7.985649,-80.618859,Panama,PA,Herrera,minor,,
El Bale,8.357451,-81.36099,Panama,PA,Veraguas,minor,,
La Tronosa,7.43609,-80.586976,Panama,PA,Los Santos,minor,,
El Cristo,8.25071,-80.62093,Panama,PA,Coclé,minor,,
La Montañuela,8.02487,-80.863246,Panama,PA,Veraguas,minor,,
Los Canelos,8.117216,-80.707688,Panama,PA,Herrera,minor,,
Metetí,8.49909,-77.97897,Panama,PA,Darién,minor,,
Caballero,8.543428,-80.197688,Panama,PA,Coclé,minor,,
El Pájaro,7.943382,-80.570101,Panama,PA,Herrera,minor,,
El Pájaro,7.953424,-81.121536,Panama,PA,Veraguas,minor,,
San Juan de Dios,8.551188,-80.22623,Panama,PA,Coclé,minor,,
Las Guías Abajo,8.194509,-80.754942,Panama,PA,Veraguas,minor,,
Limones,8.100069,-82.866786,Panama,PA,Chiriquí,minor,,
Santa Clara,9.028754,-79.754434,Panama,PA,Panamá Oeste,minor,,
Tres Quebradas,7.840184,-80.407399,Panama,PA,Los Santos,minor,,
Cañas,7.447132,-80.264795,Panama,PA,Los Santos,minor,,
Portobelo,9.552214,-79.655827,Panama,PA,Colón,minor,,
Portobelillo,8.017377,-80.595382,Panama,PA,Herrera,minor,,
Tijeras,8.475138,-82.560576,Panama,PA,Chiriquí,minor,,
Plan de Chorcha,8.461678,-82.159245,Panama,PA,Ngöbe-Buglé,minor,,
Miguel de La Borda,9.145441,-80.301236,Panama,PA,Colón,minor,,
Sitio Prado,8.372326,-81.58141,Panama,PA,Ngöbe-Buglé,minor,,
El Cedro,7.685649,-80.659266,Panama,PA,Herrera,minor,,
Las Palmitas,7.765233,-80.293496,Panama,PA,Los Santos,minor,,
Sambú,8.025646,-78.216735,Panama,PA,Darién,minor,,
Puerto Indio,8.021315,-78.210502,Panama,PA,Emberá-Wounaan,minor,,
Chiguirí Arriba,8.671866,-80.189747,Panama,PA,Coclé,minor,,
Olá,8.418073,-80.65123,Panama,PA,Coclé,minor,,
Juan Díaz,8.462404,-80.2828,Panama,PA,Coclé,minor,,
Cerro Punta,8.849678,-82.572606,Panama,PA,Chiriquí,minor,,
Cerro de Plata,8.287768,-81.368441,Panama,PA,Veraguas,minor,,
Cerro Plata,8.473081,-81.538118,Panama,PA,Ngöbe-Buglé,minor,,
Guzman,8.519687,-80.584046,Panama,PA,Coclé,minor,,
Santa Cruz,8.642694,-82.759392,Panama,PA,Chiriquí,minor,,
Zapotillo,8.005321,-81.506526,Panama,PA,Veraguas,minor,,
Valle del Risco,9.230641,-82.427475,Panama,PA,Bocas del Toro,minor,,
Quebrada Tula,8.840372,-81.996453,Panama,PA,Ngöbe-Buglé,minor,,
Chupampa,8.076195,-80.776561,Panama,PA,Herrera,minor,,
Cambutal,7.265343,-80.49105,Panama,PA,Los Santos,minor,,
Piedra Roja,8.570305,-81.746614,Panama,PA,Ngöbe-Buglé,minor,,
La Ermita,8.456224,-80.06835,Panama,PA,Panamá Oeste,minor,,
Ailigandí,9.230131,-78.031079,Panama,PA,Kuna Yala,minor,,
La Raya de Calobre,8.216301,-80.827293,Panama,PA,Veraguas,minor,,
Macaracas,7.731679,-80.553643,Panama,PA,Los Santos,minor,,
San José,8.532397,-79.930887,Panama,PA,Panamá Oeste,minor,,
Bayano,7.630135,-80.382008,Panama,PA,Los Santos,minor,,
Bajo Boquete,8.770579,-82.43306,Panama,PA,Chiriquí,minor,,
Chichica,8.358846,-81.665818,Panama,PA,Ngöbe-Buglé,minor,,
Utirá,7.972083,-81.21777,Panama,PA,Veraguas,minor,,
El Rincón,8.119231,-80.617073,Panama,PA,Herrera,minor,,
El Retiro,8.480135,-80.154264,Panama,PA,Coclé,minor,,
Cordillera,8.706825,-82.603266,Panama,PA,Chiriquí,minor,,
El Manantial,7.78245,-80.247132,Panama,PA,Los Santos,minor,,
Llano Largo,7.906066,-80.425614,Panama,PA,Los Santos,minor,,
Palmira Centro,8.739563,-82.452283,Panama,PA,Chiriquí,minor,,
Punta Peña,8.90498,-82.184956,Panama,PA,Bocas del Toro,minor,,
Chilibre,9.150932,-79.620979,Panama,PA,Panamá,minor,,
Tierra Oscura,9.196673,-82.275638,Panama,PA,Bocas del Toro,minor,,
Cabuya,8.031379,-80.632267,Panama,PA,Herrera,minor,,
Cuipo,9.068955,-80.048776,Panama,PA,Colón,minor,,
Las Cruces,7.822855,-80.430026,Panama,PA,Los Santos,minor,,
Soná,8.012232,-81.321634,Panama,PA,Veraguas,minor,,
Barnizal,8.404602,-80.777651,Panama,PA,Veraguas,minor,,
Pueblo Nuevo,8.897421,-79.965131,Panama,PA,Panamá Oeste,minor,,
La Mitra,8.840912,-79.78648,Panama,PA,Panamá Oeste,minor,,
Querévalo,8.37174,-82.5267,Panama,PA,Chiriquí,minor,,
Maraca,8.373021,-81.72741,Panama,PA,Ngöbe-Buglé,minor,,
Altos de Güera,7.530024,-80.621089,Panama,PA,Los Santos,minor,,
Las Margaritas,9.32603,-79.890284,Panama,PA,Colón,minor,,
Guayabito,8.548279,-80.013505,Panama,PA,Panamá Oeste,minor,,
El Espino Amarillo,7.676053,-80.438959,Panama,PA,Los Santos,minor,,
El María,8.030149,-81.447858,Panama,PA,Veraguas,minor,,
Palo Grande,8.346536,-82.605887,Panama,PA,Chiriquí,minor,,
Punta Chame,8.637835,-79.71422,Panama,PA,Panamá Oeste,minor,,
El Coco,8.397162,-80.349998,Panama,PA,Coclé,minor,,
Sieyic,9.383226,-82.652061,Panama,PA,Bocas del Toro,minor,,
Las Sabanas,8.581409,-80.679781,Panama,PA,Coclé,minor,,
Boca del Monte,8.352962,-82.11379,Panama,PA,Chiriquí,minor,,
Chame,8.577531,-79.885951,Panama,PA,Panamá Oeste,minor,,
Boca de Río Indio,9.182929,-80.190628,Panama,PA,Colón,minor,,
El Hato,7.793162,-80.38267,Panama,PA,Los Santos,minor,,
Quebrada de Piedra,8.094182,-81.679153,Panama,PA,Chiriquí,minor,,
Playa Chiquita,9.563055,-79.296148,Panama,PA,Colón,minor,,
Dolega,8.55836,-82.416245,Panama,PA,Chiriquí,minor,,
Mogollón,7.64261,-80.459498,Panama,PA,Los Santos,minor,,
Cerro Caña,8.351739,-81.610498,Panama,PA,Ngöbe-Buglé,minor,,
Punta Róbalo,9.036308,-82.249515,Panama,PA,Bocas del Toro,minor,,
Las Minas,8.64118,-80.394325,Panama,PA,Coclé,minor,,
Setegantí,8.29381,-78.100252,Panama,PA,Darién,minor,,
Río Grande,8.619328,-81.2883,Panama,PA,Ngöbe-Buglé,minor,,
Río Hato,8.377649,-80.163467,Panama,PA,Coclé,minor,,
Valle Rico,7.622623,-80.357388,Panama,PA,Los Santos,minor,,
Vallerriquito,7.62163,-80.319754,Panama,PA,Los Santos,minor,,
El Prado,8.237324,-81.504223,Panama,PA,Veraguas,minor,,
La Arena,7.750331,-80.592829,Panama,PA,Herrera,minor,,
El Espinal,7.866667,-80.319358,Panama,PA,Los Santos,minor,,
Los Higos,8.203844,-80.866667,Panama,PA,Veraguas,minor,,
Agua de Salud,8.504862,-81.463966,Panama,PA,Ngöbe-Buglé,minor,,
La Guinea,8.3425,-78.934296,Panama,PA,Panamá,minor,,
Calovébora,8.782817,-81.2079,Panama,PA,Veraguas,minor,,
Boca de Cupé,8.030035,-77.58978,Panama,PA,Darién,minor,,
Saboga,8.623976,-79.064607,Panama,PA,Panamá,minor,,
Taboga,8.793076,-79.557302,Panama,PA,Panamá,minor,,
Bastimentos,9.347071,-82.208798,Panama,PA,Bocas del Toro,minor,,
Changuinola,9.440933,-82.518518,Panama,PA,Bocas del Toro,minor,,
Platanilla,8.827996,-78.384347,Panama,PA,Darién,minor,,
Barriales,8.584022,-78.38822,Panama,PA,Darién,minor,,
Villa Carmen,8.798316,-79.869289,Panama,PA,Panamá Oeste,minor,,
Capellanía,8.298579,-80.554799,Panama,PA,Coclé,minor,,
Capira,8.756363,-79.879963,Panama,PA,Panamá Oeste,minor,,
Los Castillos,8.023256,-81.119413,Panama,PA,Veraguas,minor,,
Las Marias,8.888094,-80.218926,Panama,PA,Coclé,minor,,
Paja de Sombrero,8.683349,-82.319112,Panama,PA,Chiriquí,minor,,
Río de Jesús,7.978819,-81.161622,Panama,PA,Veraguas,minor,,
Veladero,8.231357,-81.654167,Panama,PA,Chiriquí,minor,,
Púcuro,7.973651,-77.48598,Panama,PA,Darién,minor,,
El Nancito,8.238107,-81.732184,Panama,PA,Chiriquí,minor,,
Otoque Occidente,8.604866,-79.604504,Panama,PA,Panamá,minor,,
Otoque Oriente,8.60131,-79.598876,Panama,PA,Panamá,minor,,
Potrerillos Arriba,8.685474,-82.490905,Panama,PA,Chiriquí,minor,,
Las Guabas,7.812255,-80.496014,Panama,PA,Los Santos,minor,,
Las Guabas,7.909485,-80.807062,Panama,PA,Herrera,minor,,
Río Hondo,7.711925,-80.359043,Panama,PA,Los Santos,minor,,
Jaramillo Arriba,8.797714,-82.42431,Panama,PA,Chiriquí,minor,,
Guarumal,8.345232,-82.532047,Panama,PA,Chiriquí,minor,,
Boca Chica,8.219111,-82.215917,Panama,PA,Chiriquí,minor,,
Pueblo Nuevo,8.150356,-78.250301,Panama,PA,Darién,minor,,
Cerro Venado,8.228177,-81.574211,Panama,PA,Chiriquí,minor,,
Puerto Lindo,9.605086,-79.585572,Panama,PA,Colón,minor,,
La Concepción,8.512123,-82.61858,Panama,PA,Chiriquí,minor,,
