city,lat,lng,country,iso2,admin,capital,population,population_proper
San Juan,18.4663338,-66.1057217,Puerto Rico,PR,,primary,2478905,395326
Mayagüez,18.201066,-67.139624,Puerto Rico,PR,,,291339,78647
Bayamón,18.3985595,-66.1557224,Puerto Rico,PR,,,185996,185996
Ponce,18.0110768,-66.6140616,Puerto Rico,PR,,,160334,152634
Carolina,18.3807819,-65.9573872,Puerto Rico,PR,,,157832,157832
Caguas,18.2341217,-66.0484989,Puerto Rico,PR,,,82243,82243
Guaynabo,18.3574502,-66.1109998,Puerto Rico,PR,,,75443,75443
Arecibo,18.472445,-66.7157306,Puerto Rico,PR,,,69307,49318
Trujillo Alto,18.3546719,-66.0073876,Puerto Rico,PR,,,48437,48437
Fajardo,18.3257869,-65.6523838,Puerto Rico,PR,,,28930,28930
Cataño,18.4413351,-66.1182218,Puerto Rico,PR,,,28140,28140
Levittown,18.4499458,-66.1815558,Puerto Rico,PR,,,26960,26960
Vega Baja,18.4443909,-66.38767,Puerto Rico,PR,,,25905,25905
Guayama,17.9841328,-66.1137767,Puerto Rico,PR,,,22691,22691
Humacao,18.1496828,-65.8273847,Puerto Rico,PR,,,18629,18629
Yauco,18.034964,-66.8498983,Puerto Rico,PR,,,17186,17186
Candelaria,18.4041147,-66.2087786,Puerto Rico,PR,,,16760,16760
Cayey,18.1119051,-66.166,Puerto Rico,PR,,,16680,16680
Manatí,18.4274472,-66.4921159,Puerto Rico,PR,,,14011,14011
Aguadilla,18.4274454,-67.1540698,Puerto Rico,PR,,,13310,13310
Dorado,18.4588347,-66.2676683,Puerto Rico,PR,,,13258,13258
Río Grande,18.380227,-65.8312749,Puerto Rico,PR,,,12677,12677
Hormigueros,18.1396799,-67.1274019,Puerto Rico,PR,,,12443,12443
Coamo,18.0799617,-66.3579473,Puerto Rico,PR,,,11522,11522
Isabela,18.500776,-67.0243462,Puerto Rico,PR,,,11255,11255
San Germán,18.0816273,-67.0449008,Puerto Rico,PR,,,10989,10989
Vega Alta,18.4121703,-66.3312805,Puerto Rico,PR,,,10266,10266
Corozal,18.3410622,-66.3168357,Puerto Rico,PR,,,10160,10160
Pájaros,18.3685609,-66.2168343,Puerto Rico,PR,,,10122,10122
Cabo Rojo,18.0866265,-67.1457347,Puerto Rico,PR,,,9803,9803
Sabana Seca,18.4268914,-66.1846115,Puerto Rico,PR,,,9705,9705
San Sebastián,18.3366166,-66.9901782,Puerto Rico,PR,,,9622,9622
Utuado,18.2655095,-66.7004519,Puerto Rico,PR,,,8397,8397
Aibonito,18.1399594,-66.2660016,Puerto Rico,PR,,,8249,8249
Sabana Grande,18.0777392,-66.9604549,Puerto Rico,PR,,,8179,8179
San Lorenzo,18.189402,-65.9609971,Puerto Rico,PR,,,8037,8037
Juana Díaz,18.0524629,-66.5065611,Puerto Rico,PR,,,7916,7916
Luquillo,18.3724507,-65.7165511,Puerto Rico,PR,,,7761,7761
Gurabo,18.2543987,-65.9729421,Puerto Rico,PR,,,7609,7609
San Antonio,18.4488351,-66.302669,Puerto Rico,PR,,,7574,7574
Juncos,18.2274558,-65.920997,Puerto Rico,PR,,,7564,7564
Canóvanas,18.3782623,-65.9056191,Puerto Rico,PR,,,7297,7297
Guánica,17.971633,-66.9079537,Puerto Rico,PR,,,7254,7254
Campanilla,18.4213363,-66.2368345,Puerto Rico,PR,,,6868,6868
San Isidro,18.3921707,-65.8854421,Puerto Rico,PR,,,6828,6828
Arroyo,17.9658005,-66.0612756,Puerto Rico,PR,,,6396,6396
Yabucoa,18.0505201,-65.8793288,Puerto Rico,PR,,,6047,6047
Puerto Real,18.0749601,-67.1871243,Puerto Rico,PR,,,5983,5983
Santa Isabel,17.9660775,-66.404892,Puerto Rico,PR,,,5976,5976
Las Piedras,18.183014,-65.8662742,Puerto Rico,PR,,,5883,5883
Peñuelas,18.0563518,-66.7215633,Puerto Rico,PR,,,5859,5859
Coco,18.0071869,-66.2593344,Puerto Rico,PR,,,5758,5758
Ceiba,18.2641226,-65.6484951,Puerto Rico,PR,,,5633,5633
Ingenio,18.4421686,-66.226001,Puerto Rico,PR,,,5354,5354
Quebradillas,18.473833,-66.938512,Puerto Rico,PR,,,5282,5282
Cidra,18.1757914,-66.1612779,Puerto Rico,PR,,,5109,5109
Añasco,18.2827291,-67.1396245,Puerto Rico,PR,,,5075,5075
Punta Santiago,18.1663493,-65.7482172,Puerto Rico,PR,,,4964,4964
Lares,18.2946746,-66.8771211,Puerto Rico,PR,,,4917,4917
Candelaria Arenas,18.4171697,-66.2173898,Puerto Rico,PR,,,4818,4818
Salinas,17.9774659,-66.297946,Puerto Rico,PR,,,4771,4771
Aguilita,18.0232976,-66.5346166,Puerto Rico,PR,,,4747,4747
Florida,18.3624494,-66.5612836,Puerto Rico,PR,,,4711,4711
Santa Bárbara,18.3951386,-65.9175508,Puerto Rico,PR,,,4622,4622
Lajas,18.049962,-67.059345,Puerto Rico,PR,,,4586,4586
Naguabo,18.2116247,-65.7348841,Puerto Rico,PR,,,4443,4443
Hatillo,18.4863331,-66.8254545,Puerto Rico,PR,,,4439,4439
Adjuntas,18.1627363,-66.7221187,Puerto Rico,PR,,,4406,4406
Patillas,18.0063544,-66.0157194,Puerto Rico,PR,,,4333,4333
Aguas Buenas,18.2568989,-66.1029442,Puerto Rico,PR,,,4204,4204
Celada,18.2716202,-65.9659977,Puerto Rico,PR,,,4081,4081
Comerío,18.2180119,-66.2260012,Puerto Rico,PR,,,4020,4020
Guayanilla,18.0191314,-66.791842,Puerto Rico,PR,,,3949,3949
Imbéry,18.4370825,-66.5564848,Puerto Rico,PR,,,3899,3899
Loíza,18.4313354,-65.8801645,Puerto Rico,PR,,,3875,3875
Moca,18.3946688,-67.1132356,Puerto Rico,PR,,,3861,3861
Barceloneta,18.4505017,-66.5385055,Puerto Rico,PR,,,3785,3785
Toa Alta,18.3882823,-66.2482237,Puerto Rico,PR,,,3713,3713
Bajadero,18.4266134,-66.6832302,Puerto Rico,PR,,,3710,3710
Camuy,18.4838331,-66.8448994,Puerto Rico,PR,,,3704,3704
Hacienda San Jose,18.2408967,-66.072085,Puerto Rico,PR,,,3531,3531
Villalba,18.1271824,-66.4921164,Puerto Rico,PR,,,3384,3384
Breñas,18.4732986,-66.3346087,Puerto Rico,PR,,,3373,3373
Cabán,18.4448321,-67.1357037,Puerto Rico,PR,,,3334,3334
Coquí,17.9741328,-66.2271118,Puerto Rico,PR,,,3293,3293
Tierras Nuevas Poniente,18.4618902,-66.4885047,Puerto Rico,PR,,,3228,3228
Aguada,18.3793913,-67.1882365,Puerto Rico,PR,,,3212,3212
Santo Domingo,18.063296,-66.7523972,Puerto Rico,PR,,,3156,3156
Potala Pastillo,17.9913537,-66.4965608,Puerto Rico,PR,,,3092,3092
La Dolores,18.3755049,-65.8557195,Puerto Rico,PR,,,3081,3081
Coto Laurel,18.0496857,-66.5512835,Puerto Rico,PR,,,3047,3047
Aguas Claras,18.252734,-65.6534952,Puerto Rico,PR,,,3006,3006
Campo Rico,18.3371732,-65.8979419,Puerto Rico,PR,,,3006,3006
Luis Lloréns Torres,18.0565439,-66.526735,Puerto Rico,PR,,,2912,2912
Piedra Aguza,18.0338531,-66.4949382,Puerto Rico,PR,,,2901,2901
San José,18.3982819,-66.2557238,Puerto Rico,PR,,,2900,2900
Luyando,18.3643923,-67.1574031,Puerto Rico,PR,,,2886,2886
Emajagua,18.0005224,-65.8826621,Puerto Rico,PR,,,2857,2857
Monte Grande,18.08746,-67.1074013,Puerto Rico,PR,,,2800,2800
Jayuya,18.2185674,-66.5915617,Puerto Rico,PR,,,2759,2759
La Fermina,18.1755145,-65.8534963,Puerto Rico,PR,,,2743,2743
Carrizales,18.4818891,-66.7898983,Puerto Rico,PR,,,2738,2738
Barranquitas,18.1866243,-66.3062802,Puerto Rico,PR,,,2695,2695
Monserrate,18.4366136,-66.3596141,Puerto Rico,PR,,,2592,2592
Ciales,18.3360622,-66.4687823,Puerto Rico,PR,,,2591,2591
La Luisa,18.4488352,-66.5098939,Puerto Rico,PR,,,2590,2590
Galateo,18.3624501,-66.2587795,Puerto Rico,PR,,,2585,2585
Las Carolinas,18.2541209,-66.0648881,Puerto Rico,PR,,,2570,2570
Alianza,18.4516123,-66.85351,Puerto Rico,PR,,,2569,2569
El Tumbao,18.004965,-66.8998984,Puerto Rico,PR,,,2511,2511
Jobos,17.9552449,-66.1654442,Puerto Rico,PR,,,2479,2479
Barahona,18.3513393,-66.4454485,Puerto Rico,PR,,,2469,2469
H. Rivera Colón,18.3481999,-66.273292,Puerto Rico,PR,,,2456,2456
Río Lajas,18.394671,-66.2676685,Puerto Rico,PR,,,2373,2373
Rafael González,18.42639,-66.787123,Puerto Rico,PR,,,2303,2303
Luis M. Cintrón,18.3013841,-65.6378333,Puerto Rico,PR,,,2290,2290
Mariano Colón,18.0232974,-66.3323909,Puerto Rico,PR,,,2240,2240
Martorell,18.0760744,-65.898218,Puerto Rico,PR,,,2232,2232
Palmas,17.9871886,-66.0254417,Puerto Rico,PR,,,2230,2230
Corazón,17.9927436,-66.0848873,Puerto Rico,PR,,,2131,2131
Los Prados,18.233037,-66.062108,Puerto Rico,PR,,,2129,2129
Los Llanos,18.0552406,-66.4057259,Puerto Rico,PR,,,2118,2118
Olimpo,18.0019099,-66.1082211,Puerto Rico,PR,,,2064,2064
Hato Candal,18.3743944,-65.7871076,Puerto Rico,PR,,,2055,2055
Palmas del Mar,18.0819088,-65.797939,Puerto Rico,PR,,,2055,2055
Guayabal,18.0813507,-66.5012833,Puerto Rico,PR,,,2036,2036
Morovis,18.325785,-66.4065592,Puerto Rico,PR,,,2032,2032
Boquerón,18.0269067,-67.169068,Puerto Rico,PR,,,2023,2023
Fránquez,18.3400704,-66.427623,Puerto Rico,PR,,,1948,1948
La Alianza,18.3974475,-66.6023952,Puerto Rico,PR,,,1947,1947
Vieques,18.1474625,-65.4448811,Puerto Rico,PR,,,1938,1938
Piedra Gorda,18.4341129,-66.8876774,Puerto Rico,PR,,,1937,1937
Palomas,18.013576,-66.8732316,Puerto Rico,PR,,,1936,1936
Suárez,18.4302244,-65.8534974,Puerto Rico,PR,,,1931,1931
Comunas,18.0871855,-65.8437732,Puerto Rico,PR,,,1900,1900
La Playa,18.2874507,-67.1868475,Puerto Rico,PR,,,1900,1900
Vázquez,18.0657957,-66.238501,Puerto Rico,PR,,,1890,1890
Ramos,18.3396747,-65.7126621,Puerto Rico,PR,,,1821,1821
Tallaboa Alta,18.0510743,-66.7001742,Puerto Rico,PR,,,1816,1816
Miranda,18.3866158,-66.3837811,Puerto Rico,PR,,,1804,1804
Sabana Hoyos,18.4338352,-66.6137846,Puerto Rico,PR,,,1783,1783
G. L. García,18.125902,-66.1026079,Puerto Rico,PR,,,1751,1751
Lluveras,18.0382969,-66.9046209,Puerto Rico,PR,,,1733,1733
Playita Cortada,17.9849653,-66.4390594,Puerto Rico,PR,,,1731,1731
El Paraiso,18.0648412,-66.602092,Puerto Rico,PR,,,1716,1716
Rafael Capó,18.3997792,-66.7908004,Puerto Rico,PR,,,1700,1700
Pole Ojea,17.9749646,-67.1851793,Puerto Rico,PR,,,1695,1695
Playa Fortuna,18.3796724,-65.7451628,Puerto Rico,PR,,,1690,1690
Río Blanco,18.2182908,-65.7884959,Puerto Rico,PR,,,1681,1681
Maunabo,18.0071885,-65.8993289,Puerto Rico,PR,,,1668,1668
Buena Vista,17.9963547,-66.0518311,Puerto Rico,PR,,,1660,1660
Naranjito,18.3007861,-66.2448904,Puerto Rico,PR,,,1655,1655
Sabana,18.4607792,-66.358503,Puerto Rico,PR,,,1630,1630
Tiburones,18.4316132,-66.5807283,Puerto Rico,PR,,,1616,1616
Coto Norte,18.4307804,-66.4398929,Puerto Rico,PR,,,1604,1604
Daguao,18.2263463,-65.6832172,Puerto Rico,PR,,,1604,1604
Culebra,18.3030119,-65.3009914,Puerto Rico,PR,,,1590,1590
Antón Ruíz,18.1882693,-65.8078813,Puerto Rico,PR,,,1589,1589
Mora,18.4629997,-67.0326798,Puerto Rico,PR,,,1583,1583
Parcelas Nuevas,18.1402372,-66.1723891,Puerto Rico,PR,,,1579,1579
Sabana Eneas,18.0860714,-67.0810122,Puerto Rico,PR,,,1576,1576
Parcelas de Navarro,18.2301054,-66.0041595,Puerto Rico,PR,,,1568,1568
Mucarabones,18.3907821,-66.216001,Puerto Rico,PR,,,1561,1561
Playita,18.0446869,-65.9073847,Puerto Rico,PR,,,1558,1558
Las Ollas,18.0330192,-66.4243372,Puerto Rico,PR,,,1557,1557
Jauca,17.9691331,-66.3657246,Puerto Rico,PR,,,1529,1529
Pastos,18.117738,-66.2587793,Puerto Rico,PR,,,1514,1514
Toa Baja,18.4438353,-66.2596126,Puerto Rico,PR,,,1513,1513
Indios,17.9941326,-66.8193421,Puerto Rico,PR,,,1484,1484
El Mangó,18.2341225,-65.879608,Puerto Rico,PR,,,1482,1482
El Ojo,18.0038537,-66.3915585,Puerto Rico,PR,,,1478,1478
Rincón,18.3402252,-67.2499027,Puerto Rico,PR,,,1456,1456
Aceitunas,18.4432783,-67.0649026,Puerto Rico,PR,,,1436,1436
Benítez,18.272533,-65.8788312,Puerto Rico,PR,,,1409,1409
Corcovado,18.4585569,-66.7762868,Puerto Rico,PR,,,1405,1405
Rafael Hernández,18.4718548,-67.078585,Puerto Rico,PR,,,1351,1351
Quebrada del Agua,18.0379017,-66.6845708,Puerto Rico,PR,,,1325,1325
Duque,18.2394011,-65.7504401,Puerto Rico,PR,,,1320,1320
Bartolo,18.361339,-65.8384971,Puerto Rico,PR,,,1311,1311
Pueblito Del Río,18.2280217,-65.861566,Puerto Rico,PR,,,1310,1310
Bajandas,18.1577384,-65.7815509,Puerto Rico,PR,,,1309,1309
Central Aguirre,17.9535782,-66.222945,Puerto Rico,PR,,,1301,1301
Parcelas la Milagrosa,18.1715082,-66.1868477,Puerto Rico,PR,,,1290,1290
María Antonia,17.9787449,-66.888664,Puerto Rico,PR,,,1285,1285
Espino,18.2763407,-67.1193464,Puerto Rico,PR,,,1270,1270
Esperanza,18.0971868,-65.4707144,Puerto Rico,PR,,,1219,1219
Magas Arriba,18.0174648,-66.7690639,Puerto Rico,PR,,,1215,1215
Candelero Arriba,18.1019071,-65.8368288,Puerto Rico,PR,,,1215,1215
Animas,18.4455016,-66.6348964,Puerto Rico,PR,,,1203,1203
Buena Vista,18.115518,-65.7982173,Puerto Rico,PR,,,1134,1134
Cayuco,18.2910639,-66.7393414,Puerto Rico,PR,,,1120,1120
Liborio Negrón Torres,18.0430954,-66.9428012,Puerto Rico,PR,,,1112,1112
Fuig,17.9877435,-66.9160095,Puerto Rico,PR,,,1110,1110
Palmarejo,18.0680177,-66.3254467,Puerto Rico,PR,,,1090,1090
Stella,18.3218929,-67.2468473,Puerto Rico,PR,,,1088,1088
Garrochales,18.453557,-66.5662837,Puerto Rico,PR,,,1086,1086
El Negro,18.0374654,-65.8512729,Puerto Rico,PR,,,1075,1075
Jagual,18.1616255,-65.9954419,Puerto Rico,PR,,,1062,1062
Rosa Sánchez,18.0597925,-65.909286,Puerto Rico,PR,,,1055,1055
Las Croabas,18.3646741,-65.6259948,Puerto Rico,PR,,,1053,1053
Lamboglia,17.9813556,-65.9857188,Puerto Rico,PR,,,1050,1050
Yaurel,18.026909,-66.0571092,Puerto Rico,PR,,,1050,1050
La Parguera,17.9749654,-67.0465664,Puerto Rico,PR,,,1044,1044
Río Cañas Abajo,18.0382968,-66.4676716,Puerto Rico,PR,,,1038,1038
Palmer,18.3705058,-65.7740519,Puerto Rico,PR,,,1032,1032
Palo Seco,18.0074659,-65.9368293,Puerto Rico,PR,,,1008,1008
Cacao,18.4366125,-66.9371226,Puerto Rico,PR,,,1001,1001
Quebrada,18.3566164,-66.8321206,Puerto Rico,PR,,,995,995
Juncal,18.3138402,-66.9190661,Puerto Rico,PR,,,994,994
Peña Pobre,18.2155129,-65.8221074,Puerto Rico,PR,,,991,991
Santa Clara,18.2185674,-66.1287777,Puerto Rico,PR,,,982,982
Lomas,18.2685651,-65.908775,Puerto Rico,PR,,,956,956
Las Ochenta,17.984688,-66.3179461,Puerto Rico,PR,,,951,951
Búfalo,18.4174168,-66.574928,Puerto Rico,PR,,,949,949
Parcelas Peñuelas,17.9988539,-66.3412797,Puerto Rico,PR,,,941,941
Tallaboa,17.9949661,-66.7162855,Puerto Rico,PR,,,925,925
Maguayo,18.0102415,-67.0835115,Puerto Rico,PR,,,903,903
Betances,18.0285736,-67.1349009,Puerto Rico,PR,,,876,876
Maricao,18.1807902,-66.9799001,Puerto Rico,PR,,,868,868
La Plena,18.0466298,-66.2046116,Puerto Rico,PR,,,865,865
Las Marías,18.2518983,-66.9921225,Puerto Rico,PR,,,806,806
Cerrillos Hoyos,18.0654893,-66.5690549,Puerto Rico,PR,,,748,748
Pajonal,18.3821709,-66.5557279,Puerto Rico,PR,,,742,742
Orocovis,18.2269005,-66.3910037,Puerto Rico,PR,,,722,722
Parcelas Viejas Borinquen,18.1738541,-66.0406197,Puerto Rico,PR,,,677,677
Hato Arriba,18.3557821,-67.0340678,Puerto Rico,PR,,,676,676
La Yuca,18.0727343,-66.607733,Puerto Rico,PR,,,665,665
Candelero Abajo,18.0941674,-65.8164561,Puerto Rico,PR,,,598,598
Pueblito del Carmen,18.031545,-66.1655767,Puerto Rico,PR,,,572,572
Parcelas Mandry,18.0810426,-66.5627014,Puerto Rico,PR,,,571,571
Vayas,18.0521858,-66.5840615,Puerto Rico,PR,,,528,528
El Combate,17.9782977,-67.2121242,Puerto Rico,PR,,,423,423
Bairoa La Vienticinco,18.2635667,-66.0214987,Puerto Rico,PR,,,399,399
Tibes,18.0907636,-66.6323842,Puerto Rico,PR,,,362,362
Rodríguez Hevia,18.1924573,-66.170167,Puerto Rico,PR,,,325,325
Anon Raices,18.1391575,-66.5865124,Puerto Rico,PR,,,287,287
La Liga,18.2904606,-66.0494961,Puerto Rico,PR,,,281,281
Los Panes,18.1871075,-66.0762395,Puerto Rico,PR,,,267,267
Corral Viejo,18.0799621,-66.6529511,Puerto Rico,PR,,,260,260
Calzada,18.0082987,-66.5668388,Puerto Rico,PR,,,191,191
Monte Verde,18.0971876,-66.6195866,Puerto Rico,PR,,,137,137
