city,lat,lng,country,iso2,admin,capital,population,population_proper
Stockholm,59.333333,18.05,Sweden,SE,Stockholm,primary,1264000,1253309
Glöstorp,57.75,11.933333,Sweden,SE,Västra Götaland,,537797,504084
Malmö,55.6,13.0,Sweden,SE,Skåne,admin,269349,261548
Uppsala,59.85,17.633333,Sweden,SE,Uppsala,admin,133117,127734
Västerås,59.616667,16.55,Sweden,SE,Västmanland,admin,107194,93179
Örebro,59.283333,15.216667,Sweden,SE,Örebro,admin,98573,93291
Linköping,58.416667,15.616667,Sweden,SE,Östergötland,admin,96732,91491
Helsingborg,56.05,12.7,Sweden,SE,Skåne,minor,91304,91025
Jönköping,57.783333,14.183333,Sweden,SE,Jönköping,admin,89780,83202
Norrköping,58.6,16.183333,Sweden,SE,Östergötland,minor,88639,82903
Umeå,63.833333,20.25,Sweden,SE,Västerbotten,admin,78197,74005
Bärstad,59.333333,13.55,Sweden,SE,Värmland,,74141,59266
Tunadal,62.414167,17.379444,Sweden,SE,Västernorrland,,73389,48463
Gävle,60.666667,17.166667,Sweden,SE,Gävleborg,admin,68635,67836
Borås,57.716667,12.916667,Sweden,SE,Västra Götaland,minor,65008,63223
Växjö,56.883333,14.816667,Sweden,SE,Kronoberg,admin,59600,46535
Halmstad,56.671389,12.855556,Sweden,SE,Halland,admin,55657,55209
Luleå,65.583333,22.15,Sweden,SE,Norrbotten,admin,48638,45551
Östersund,63.183333,14.65,Sweden,SE,Jämtland,admin,46178,42940
Trollhättan,58.266667,12.3,Sweden,SE,Västra Götaland,minor,44543,44522
Borlänge,60.483333,15.416667,Sweden,SE,Dalarna,minor,39422,38527
Falun,60.6,15.633333,Sweden,SE,Dalarna,admin,36477,36477
Kalmar,56.666667,16.366667,Sweden,SE,Kalmar,admin,35024,34744
Kristianstad,56.033333,14.133333,Sweden,SE,Skåne,minor,32188,21339
Skellefteå,64.766667,20.95,Sweden,SE,Västerbotten,minor,31311,30839
Örnsköldsvik,63.3,18.716667,Sweden,SE,Västernorrland,minor,27749,25063
Nyköping,58.75,17.0,Sweden,SE,Södermanland,admin,27582,27582
Visby,57.639617,18.298582,Sweden,SE,Gotland,admin,22593,21970
Vänersborg,58.366667,12.316667,Sweden,SE,Västra Götaland,minor,21835,21835
Kirunavaara,67.816667,20.2,Sweden,SE,Norrbotten,,18154,8450
Fröland,62.616667,17.883333,Sweden,SE,Västernorrland,,17016,17016
Mariestad,58.7,13.816667,Sweden,SE,Västra Götaland,minor,14891,14891
Bollnäs,61.35,16.366667,Sweden,SE,Gävleborg,minor,13398,12145
Älvsbyn,65.666667,21.0,Sweden,SE,Norrbotten,minor,,
Forshaga,59.533333,13.466667,Sweden,SE,Värmland,minor,,
Lomma,55.683333,13.083333,Sweden,SE,Skåne,minor,,
Henån,58.233333,11.683333,Sweden,SE,Västra Götaland,minor,,
Kopparberg,59.866667,14.983333,Sweden,SE,Örebro,minor,,
Tibro,58.416667,14.166667,Sweden,SE,Västra Götaland,minor,,
Tidaholm,58.183333,13.95,Sweden,SE,Västra Götaland,minor,,
Broby,56.25,14.083333,Sweden,SE,Skåne,minor,,
Södertälje,59.2,17.616667,Sweden,SE,Stockholm,minor,,
Tierp,60.333333,17.5,Sweden,SE,Uppsala,minor,,
Hammarstrand,63.1,16.35,Sweden,SE,Jämtland,minor,,
Motala,58.55,15.05,Sweden,SE,Östergötland,minor,,
Hagfors,60.033333,13.65,Sweden,SE,Värmland,minor,,
Filipstad,59.716667,14.166667,Sweden,SE,Värmland,minor,,
Hallsberg,59.066667,15.116667,Sweden,SE,Örebro,minor,,
Arjeplog,66.048563,17.884984,Sweden,SE,Norrbotten,minor,,
Arvika,59.666667,12.566667,Sweden,SE,Värmland,minor,,
Tanumshede,58.733333,11.316667,Sweden,SE,Västra Götaland,minor,,
Kalix,65.85,23.133333,Sweden,SE,Norrbotten,minor,,
Hedemora,60.283333,15.983333,Sweden,SE,Dalarna,minor,,
Nossebro,58.183333,12.716667,Sweden,SE,Västra Götaland,minor,,
Hallstahammar,59.616667,16.216667,Sweden,SE,Västmanland,minor,,
Skurup,55.466667,13.5,Sweden,SE,Skåne,minor,,
Vetlanda,57.433333,15.066667,Sweden,SE,Jönköping,minor,,
Ronneby,56.2,15.3,Sweden,SE,Blekinge,minor,,
Kungsör,59.416667,16.083333,Sweden,SE,Västmanland,minor,,
Hova,58.866667,14.183333,Sweden,SE,Västra Götaland,minor,,
Eksjö,57.666667,14.95,Sweden,SE,Jönköping,minor,,
Eslöv,55.833333,13.333333,Sweden,SE,Skåne,minor,,
Höganäs,56.2,12.55,Sweden,SE,Skåne,minor,,
Sölvesborg,56.05,14.55,Sweden,SE,Blekinge,minor,,
Norsjö,64.916667,19.483333,Sweden,SE,Västerbotten,minor,,
Vaxholm,59.4,18.333333,Sweden,SE,Stockholm,minor,,
Perstorp,56.133333,13.383333,Sweden,SE,Skåne,minor,,
Leksand,60.733333,15.016667,Sweden,SE,Dalarna,minor,,
Ludvika,60.15,15.183333,Sweden,SE,Dalarna,minor,,
Vilhelmina,64.616667,16.65,Sweden,SE,Västerbotten,minor,,
Alvesta,56.9,14.55,Sweden,SE,Kronoberg,minor,,
Valdemarsvik,58.2,16.6,Sweden,SE,Östergötland,minor,,
Skillingaryd,57.433333,14.083333,Sweden,SE,Jönköping,minor,,
Alafors,57.933333,12.083333,Sweden,SE,Västra Götaland,minor,,
Tranås,58.05,14.983333,Sweden,SE,Jönköping,minor,,
Nykvarn,59.183333,17.433333,Sweden,SE,Stockholm,minor,,
Upplands Väsby,59.516667,17.9,Sweden,SE,Stockholm,minor,,
Bjurholm,63.933333,19.216667,Sweden,SE,Västerbotten,minor,,
Degerfors,59.233333,14.433333,Sweden,SE,Örebro,minor,,
Sundsvall,62.383333,17.3,Sweden,SE,Västernorrland,minor,,
Ystad,55.416667,13.816667,Sweden,SE,Skåne,minor,,
Jakobsberg,59.416667,17.833333,Sweden,SE,Stockholm,minor,,
Knivsta,59.716667,17.8,Sweden,SE,Uppsala,minor,,
Vallentuna,59.533333,18.083333,Sweden,SE,Stockholm,minor,,
Strängnäs,59.383333,17.033333,Sweden,SE,Södermanland,minor,,
Östhammar,60.266667,18.366667,Sweden,SE,Uppsala,minor,,
Hofors,60.55,16.283333,Sweden,SE,Gävleborg,minor,,
Mölndal,57.65,12.016667,Sweden,SE,Västra Götaland,minor,,
Simrishamn,55.55,14.333333,Sweden,SE,Skåne,minor,,
Bräcke,62.75,15.416667,Sweden,SE,Jämtland,minor,,
Vansbro,60.516667,14.216667,Sweden,SE,Dalarna,minor,,
Lerum,57.766667,12.266667,Sweden,SE,Västra Götaland,minor,,
Götene,58.533333,13.483333,Sweden,SE,Västra Götaland,minor,,
Sollefteå,63.166667,17.266667,Sweden,SE,Västernorrland,minor,,
Boden,65.833333,21.7,Sweden,SE,Norrbotten,minor,,
Ed,58.916667,11.916667,Sweden,SE,Västra Götaland,minor,,
Kungsbacka,57.483333,12.066667,Sweden,SE,Halland,minor,,
Åstorp,56.133333,12.95,Sweden,SE,Skåne,minor,,
Skärhamn,57.996667,11.556111,Sweden,SE,Västra Götaland,minor,,
Karlskrona,56.166667,15.583333,Sweden,SE,Blekinge,admin,,
Mörbylånga,56.516667,16.383333,Sweden,SE,Kalmar,minor,,
Tomelilla,55.55,13.95,Sweden,SE,Skåne,minor,,
Vingåker,59.033333,15.866667,Sweden,SE,Södermanland,minor,,
Lysekil,58.283333,11.433333,Sweden,SE,Västra Götaland,minor,,
Säffle,59.133333,12.9,Sweden,SE,Värmland,minor,,
Norberg,60.066667,15.933333,Sweden,SE,Västmanland,minor,,
Skinnskatteberg,59.833333,15.683333,Sweden,SE,Västmanland,minor,,
Falkenberg,56.898056,12.501944,Sweden,SE,Halland,minor,,
Söderköping,58.483333,16.3,Sweden,SE,Östergötland,minor,,
Surahammar,59.716667,16.216667,Sweden,SE,Västmanland,minor,,
Munkfors,59.833333,13.533333,Sweden,SE,Värmland,minor,,
Bollebygd,57.666667,12.55,Sweden,SE,Västra Götaland,minor,,
Gagnef,60.583333,15.066667,Sweden,SE,Dalarna,minor,,
Hyltebruk,57.0,13.233333,Sweden,SE,Halland,minor,,
Ödeshög,58.233333,14.65,Sweden,SE,Östergötland,minor,,
Torsås,56.4,16.0,Sweden,SE,Kalmar,minor,,
Nynäshamn,58.904444,17.946389,Sweden,SE,Stockholm,minor,,
Djursholm,59.4,18.083333,Sweden,SE,Stockholm,minor,,
Boxholm,58.2,15.05,Sweden,SE,Östergötland,minor,,
Bengtsfors,59.033333,12.216667,Sweden,SE,Västra Götaland,minor,,
Båstad,56.432222,12.833333,Sweden,SE,Skåne,minor,,
Österbymo,57.833333,15.266667,Sweden,SE,Östergötland,minor,,
Kungsängen,59.483333,17.75,Sweden,SE,Stockholm,minor,,
Kungälv,57.866667,11.966667,Sweden,SE,Västra Götaland,minor,,
Älmhult,56.55,14.133333,Sweden,SE,Kronoberg,minor,,
Sorsele,65.53239,17.543098,Sweden,SE,Västerbotten,minor,,
Smedjebacken,60.133333,15.416667,Sweden,SE,Dalarna,minor,,
Uddevalla,58.366667,11.933333,Sweden,SE,Västra Götaland,minor,,
Oxelösund,58.666667,17.1,Sweden,SE,Södermanland,minor,,
Överkalix,66.316667,22.833333,Sweden,SE,Norrbotten,minor,,
Laholm,56.516667,13.033333,Sweden,SE,Halland,minor,,
Svalöv,55.916667,13.1,Sweden,SE,Skåne,minor,,
Sandviken,60.616667,16.766667,Sweden,SE,Gävleborg,minor,,
Nacka,59.3,18.166667,Sweden,SE,Stockholm,minor,,
Enköping,59.633333,17.066667,Sweden,SE,Uppsala,minor,,
Älvdalen,61.233333,14.033333,Sweden,SE,Dalarna,minor,,
Katrineholm,59.0,16.2,Sweden,SE,Södermanland,minor,,
Rättvik,60.883333,15.1,Sweden,SE,Dalarna,minor,,
Skoghall,59.333333,13.433333,Sweden,SE,Värmland,minor,,
Sunne,59.833333,13.15,Sweden,SE,Värmland,minor,,
Gislaved,57.3,13.533333,Sweden,SE,Jönköping,minor,,
Tumba,59.2,17.816667,Sweden,SE,Stockholm,minor,,
Ulricehamn,57.783333,13.416667,Sweden,SE,Västra Götaland,minor,,
Osby,56.366667,13.983333,Sweden,SE,Skåne,minor,,
Högsby,57.166667,16.033333,Sweden,SE,Kalmar,minor,,
Munkedal,58.483333,11.683333,Sweden,SE,Västra Götaland,minor,,
Järpen,63.35,13.483333,Sweden,SE,Jämtland,minor,,
Lycksele,64.6,18.666667,Sweden,SE,Västerbotten,minor,,
Ljungby,56.833333,13.933333,Sweden,SE,Kronoberg,minor,,
Vara,58.266667,12.95,Sweden,SE,Västra Götaland,minor,,
Värnamo,57.183333,14.033333,Sweden,SE,Jönköping,minor,,
Emmaboda,56.633333,15.533333,Sweden,SE,Kalmar,minor,,
Nässjö,57.65,14.683333,Sweden,SE,Jönköping,minor,,
Haparanda,65.829729,24.147,Sweden,SE,Norrbotten,minor,,
Västerhaninge,59.116667,18.1,Sweden,SE,Stockholm,minor,,
Herrljunga,58.083333,13.033333,Sweden,SE,Västra Götaland,minor,,
Tranemo,57.483333,13.35,Sweden,SE,Västra Götaland,minor,,
Laxå,58.983333,14.616667,Sweden,SE,Örebro,minor,,
Mölnlycke,57.65,12.133333,Sweden,SE,Västra Götaland,minor,,
Storuman,65.1,17.1,Sweden,SE,Västerbotten,minor,,
Skara,58.366667,13.416667,Sweden,SE,Västra Götaland,minor,,
Hudiksvall,61.733333,17.1125,Sweden,SE,Gävleborg,minor,,
Ljusdal,61.833333,16.1,Sweden,SE,Gävleborg,minor,,
Huddinge,59.233333,17.983333,Sweden,SE,Stockholm,minor,,
Töreboda,58.716667,14.133333,Sweden,SE,Västra Götaland,minor,,
Svenljunga,57.5,13.116667,Sweden,SE,Västra Götaland,minor,,
Lidingö,59.366667,18.133333,Sweden,SE,Stockholm,minor,,
Solna,59.366667,18.016667,Sweden,SE,Stockholm,minor,,
Tyresö,59.233333,18.3,Sweden,SE,Stockholm,minor,,
Vännäs,63.916667,19.75,Sweden,SE,Västerbotten,minor,,
Örkelljunga,56.283333,13.283333,Sweden,SE,Skåne,minor,,
Kil,59.516667,13.316667,Sweden,SE,Värmland,minor,,
Fagersta,60.0,15.783333,Sweden,SE,Västmanland,minor,,
Åsele,64.166667,17.333333,Sweden,SE,Västerbotten,minor,,
Åseda,57.166667,15.333333,Sweden,SE,Kronoberg,minor,,
Staffanstorp,55.633333,13.216667,Sweden,SE,Skåne,minor,,
Ekerö,59.266667,17.733333,Sweden,SE,Stockholm,minor,,
Norrtälje,59.766667,18.7,Sweden,SE,Stockholm,minor,,
Märsta,59.616667,17.85,Sweden,SE,Stockholm,minor,,
Markaryd,56.433333,13.6,Sweden,SE,Kronoberg,minor,,
Hällefors,59.783333,14.5,Sweden,SE,Örebro,minor,,
Vimmerby,57.666667,15.85,Sweden,SE,Kalmar,minor,,
Mönsterås,57.033333,16.433333,Sweden,SE,Kalmar,minor,,
Fjugesta,59.166667,14.866667,Sweden,SE,Örebro,minor,,
Åtvidaberg,58.2,16.0,Sweden,SE,Östergötland,minor,,
Kristinehamn,59.333333,14.116667,Sweden,SE,Värmland,minor,,
Arboga,59.4,15.833333,Sweden,SE,Västmanland,minor,,
Alingsås,57.933333,12.516667,Sweden,SE,Västra Götaland,minor,,
Hässleholm,56.15,13.766667,Sweden,SE,Skåne,minor,,
Edsbyn,61.383333,15.816667,Sweden,SE,Gävleborg,minor,,
Strömstad,58.933333,11.183333,Sweden,SE,Västra Götaland,minor,,
Strömsund,63.85,15.583333,Sweden,SE,Jämtland,minor,,
Storfors,59.533333,14.266667,Sweden,SE,Värmland,minor,,
Årjäng,59.383333,12.133333,Sweden,SE,Värmland,minor,,
Karlsborg,58.533333,14.516667,Sweden,SE,Västra Götaland,minor,,
Rönninge,59.2,17.733333,Sweden,SE,Stockholm,minor,,
Göteborg,57.716667,11.966667,Sweden,SE,Västra Götaland,admin,,
Vadstena,58.45,14.9,Sweden,SE,Östergötland,minor,,
Bergsjö,61.983333,17.066667,Sweden,SE,Gävleborg,minor,,
Karlskoga,59.333333,14.516667,Sweden,SE,Örebro,minor,,
Sollentuna,59.466667,17.9,Sweden,SE,Stockholm,minor,,
Säter,60.35,15.75,Sweden,SE,Dalarna,minor,,
Gnosjö,57.366667,13.733333,Sweden,SE,Jönköping,minor,,
Gnesta,59.05,17.3,Sweden,SE,Södermanland,minor,,
Bromölla,56.066667,14.466667,Sweden,SE,Skåne,minor,,
Nora,59.516667,15.033333,Sweden,SE,Örebro,minor,,
Gällivare,67.133333,20.7,Sweden,SE,Norrbotten,minor,,
Varberg,57.108586,12.266099,Sweden,SE,Halland,minor,,
Ockelbo,60.883333,16.716667,Sweden,SE,Gävleborg,minor,,
Öckerö,57.708097,11.641298,Sweden,SE,Västra Götaland,minor,,
Ängelholm,56.25,12.866667,Sweden,SE,Skåne,minor,,
Vindeln,64.2,19.733333,Sweden,SE,Västerbotten,minor,,
Timrå,62.477778,17.306944,Sweden,SE,Västernorrland,minor,,
Hörby,55.85,13.65,Sweden,SE,Skåne,minor,,
Höör,55.933333,13.533333,Sweden,SE,Skåne,minor,,
Sundbyberg,59.366667,17.966667,Sweden,SE,Stockholm,minor,,
Vårgårda,58.033333,12.8,Sweden,SE,Västra Götaland,minor,,
Bjuv,56.083333,12.9,Sweden,SE,Skåne,minor,,
Svedala,55.5,13.233333,Sweden,SE,Skåne,minor,,
Orsa,61.116667,14.616667,Sweden,SE,Dalarna,minor,,
Piteå,65.333333,21.5,Sweden,SE,Norrbotten,minor,,
Arvidsjaur,65.583333,19.166667,Sweden,SE,Norrbotten,minor,,
Aneby,57.833333,14.8,Sweden,SE,Jönköping,minor,,
Falköping,58.166667,13.55,Sweden,SE,Västra Götaland,minor,,
Lund,55.7,13.183333,Sweden,SE,Skåne,minor,,
Olofström,56.266667,14.5,Sweden,SE,Blekinge,minor,,
Habo,57.916667,14.066667,Sweden,SE,Jönköping,minor,,
Pajala,67.2,23.366667,Sweden,SE,Norrbotten,minor,,
Skutskär,60.633333,17.416667,Sweden,SE,Uppsala,minor,,
Täby,59.5,18.05,Sweden,SE,Stockholm,minor,,
Kävlinge,55.8,13.1,Sweden,SE,Skåne,minor,,
Hultsfred,57.483333,15.833333,Sweden,SE,Kalmar,minor,,
Avesta,60.15,16.2,Sweden,SE,Dalarna,minor,,
Ånge,62.516667,15.616667,Sweden,SE,Västernorrland,minor,,
Malå,65.183333,18.75,Sweden,SE,Västerbotten,minor,,
Finspång,58.716667,15.783333,Sweden,SE,Östergötland,minor,,
Borgholm,56.883333,16.65,Sweden,SE,Kalmar,minor,,
Gustavsberg,59.316667,18.383333,Sweden,SE,Stockholm,minor,,
Mullsjö,57.916667,13.883333,Sweden,SE,Jönköping,minor,,
Grästorp,58.333333,12.683333,Sweden,SE,Västra Götaland,minor,,
Åmål,59.05,12.7,Sweden,SE,Västra Götaland,minor,,
Lindesberg,59.583333,15.25,Sweden,SE,Örebro,minor,,
Kinna,57.5,12.683333,Sweden,SE,Västra Götaland,minor,,
Sveg,62.033333,14.35,Sweden,SE,Jämtland,minor,,
Eskilstuna,59.366667,16.5,Sweden,SE,Södermanland,minor,,
Kumla,59.133333,15.133333,Sweden,SE,Örebro,minor,,
Köping,59.516667,16.0,Sweden,SE,Västmanland,minor,,
Trelleborg,55.366667,13.166667,Sweden,SE,Skåne,minor,,
Grums,59.316667,13.1,Sweden,SE,Värmland,minor,,
Mellerud,58.7,12.466667,Sweden,SE,Västra Götaland,minor,,
Sala,59.916667,16.6,Sweden,SE,Västmanland,minor,,
Partille,57.733333,12.116667,Sweden,SE,Västra Götaland,minor,,
Kramfors,62.933333,17.7925,Sweden,SE,Västernorrland,minor,,
Sävsjö,57.4,14.666667,Sweden,SE,Jönköping,minor,,
Härnösand,62.636111,17.941111,Sweden,SE,Västernorrland,admin,,
Skövde,58.4,13.85,Sweden,SE,Västra Götaland,minor,,
Jokkmokk,66.604995,19.832866,Sweden,SE,Norrbotten,minor,,
Askersund,58.883333,14.9,Sweden,SE,Örebro,minor,,
Robertsfors,64.183333,20.85,Sweden,SE,Västerbotten,minor,,
Kiruna,67.85,20.216667,Sweden,SE,Norrbotten,minor,,
Stenungsund,58.083333,11.816667,Sweden,SE,Västra Götaland,minor,,
Bålsta,59.583333,17.5,Sweden,SE,Uppsala,minor,,
Tingsryd,56.533333,14.983333,Sweden,SE,Kronoberg,minor,,
Charlottenberg,59.883333,12.283333,Sweden,SE,Värmland,minor,,
Lidköping,58.5,13.166667,Sweden,SE,Västra Götaland,minor,,
Kungshamn,58.35,11.25,Sweden,SE,Västra Götaland,minor,,
Heby,59.933333,16.883333,Sweden,SE,Uppsala,minor,,
Färgelanda,58.566667,12.0,Sweden,SE,Västra Götaland,minor,,
Mjölby,58.316667,15.133333,Sweden,SE,Östergötland,minor,,
Åkersberga,59.483333,18.3,Sweden,SE,Stockholm,minor,,
Lilla Edet,58.133333,12.133333,Sweden,SE,Västra Götaland,minor,,
Karlstad,59.366667,13.5,Sweden,SE,Värmland,admin,,
Lessebo,56.75,15.266667,Sweden,SE,Kronoberg,minor,,
Flen,59.066667,16.583333,Sweden,SE,Södermanland,minor,,
Dorotea,64.266667,16.4,Sweden,SE,Västerbotten,minor,,
Mora,61.0,14.55,Sweden,SE,Dalarna,minor,,
Arlöv,55.633333,13.066667,Sweden,SE,Skåne,minor,,
Krokom,63.333333,14.45,Sweden,SE,Jämtland,minor,,
Svenstavik,62.766667,14.45,Sweden,SE,Jämtland,minor,,
Malung,60.666667,13.7,Sweden,SE,Dalarna,minor,,
Sjöbo,55.633333,13.7,Sweden,SE,Skåne,minor,,
Landskrona,55.866667,12.833333,Sweden,SE,Skåne,minor,,
Nordmaling,63.566667,19.5,Sweden,SE,Västerbotten,minor,,
Västervik,57.75,16.633333,Sweden,SE,Kalmar,minor,,
Övertorneå,66.38658,23.661818,Sweden,SE,Norrbotten,minor,,
Nybro,56.75,15.9,Sweden,SE,Kalmar,minor,,
Söderhamn,61.3,17.05,Sweden,SE,Gävleborg,minor,,
Kisa,57.983333,15.616667,Sweden,SE,Östergötland,minor,,
Hjo,58.3,14.283333,Sweden,SE,Västra Götaland,minor,,
Oskarshamn,57.266667,16.433333,Sweden,SE,Kalmar,minor,,
Torsby,60.133333,13.0,Sweden,SE,Värmland,minor,,
Vellinge,55.466667,13.016667,Sweden,SE,Skåne,minor,,
Klippan,56.133333,13.133333,Sweden,SE,Skåne,minor,,
Trosa,58.9,17.55,Sweden,SE,Södermanland,minor,,
